[
  {
    "name": "Jagupit Elementary School",
    "sdo": "Agusan Del Norte",
    "lat": 9.266148034546173,
    "lng": 125.55939506079605,
    "implementationTypes": [
      "SCALING - ROUND 1",
      "SCALING - ROUND 2"
    ],
    "multipleRounds": true
  },
  {
    "name": "Kauswagan De Oro Elementary School",
    "sdo": "Agusan Del Norte",
    "lat": 9.26642846741029,
    "lng": 125.55925192234524,
    "implementationTypes": [
      "SCALING - ROUND 1",
      "SCALING - ROUND 2"
    ],
    "multipleRounds": true
  },
  {
    "name": "La Paz Elementary School",
    "sdo": "Agusan Del Norte",
    "lat": 9.267331421373015,
    "lng": 125.55919677446336,
    "implementationTypes": [
      "SCALING - ROUND 2"
    ],
    "multipleRounds": false
  },
  {
    "name": "Poblacion Doz Elementary School",
    "sdo": "Agusan Del Norte",
    "lat": 9.06267852986704,
    "lng": 125.60520801863943,
    "implementationTypes": [
      "SCALING - ROUND 1",
      "SCALING - ROUND 2",
      "SCALING - ROUND 3"
    ],
    "multipleRounds": true
  },
  {
    "name": "Prospero D. Salas Elementary School",
    "sdo": "Agusan Del Norte",
    "lat": 9.305465861261245,
    "lng": 125.55168493618675,
    "implementationTypes": [
      "SCALING - ROUND 1",
      "SCALING - ROUND 2",
      "SCALING - ROUND 3"
    ],
    "multipleRounds": true
  },
  {
    "name": "RT Romualdez Central Elementary School",
    "sdo": "Agusan Del Norte",
    "lat": 9.051897109821365,
    "lng": 125.5863019456238,
    "implementationTypes": [
      "SCALING - ROUND 1",
      "SCALING - ROUND 2"
    ],
    "multipleRounds": true
  },
  {
    "name": "Doña Telesfora Elementary School",
    "sdo": "Agusan Del Norte",
    "lat": 9.161239608792444,
    "lng": 125.57337582619628,
    "implementationTypes": [
      "SCALING - ROUND 1"
    ],
    "multipleRounds": false
  },
  {
    "name": "Dona Rosario Central Elem. School",
    "sdo": "Agusan Del Norte",
    "lat": 9.15753925650595,
    "lng": 125.56121186096918,
    "implementationTypes": [
      "SCALING - ROUND 1"
    ],
    "multipleRounds": false
  },
  {
    "name": "Dona Telesfora L. Ong Oh Elementary School",
    "sdo": "Agusan Del Norte",
    "lat": 9.232090554496153,
    "lng": 125.58745501897309,
    "implementationTypes": [
      "SCALING - ROUND 1"
    ],
    "multipleRounds": false
  },
  {
    "name": "Luis B. Azura Sr. Memorial Elementary School",
    "sdo": "Agusan Del Norte",
    "lat": 9.066633497213482,
    "lng": 125.58165282419321,
    "implementationTypes": [
      "SCALING - ROUND 1"
    ],
    "multipleRounds": false
  },
  {
    "name": "Humilog Elementary School",
    "sdo": "Agusan Del Norte",
    "lat": 9.057729569129535,
    "lng": 125.56918687000248,
    "implementationTypes": [
      "SCALING - ROUND 3"
    ],
    "multipleRounds": false
  },
  {
    "name": "Kitcharao Central Elementary School",
    "sdo": "Agusan Del Norte",
    "lat": 6.7060413,
    "lng": 121.9702068,
    "implementationTypes": [
      "SCALING - ROUND 3"
    ],
    "multipleRounds": false
  },
  {
    "name": "Magallanes North Elementary School",
    "sdo": "Agusan Del Norte",
    "lat": 9.0727972,
    "lng": 125.5335711,
    "implementationTypes": [
      "SCALING - ROUND 3"
    ],
    "multipleRounds": false
  },
  {
    "name": "Caloc-An Elementary School",
    "sdo": "Agusan Del Norte",
    "lat": 9.5026288,
    "lng": 125.4743945,
    "implementationTypes": [
      "SCALING - ROUND 3",
      "SCALING - ROUND 4"
    ],
    "multipleRounds": true
  },
  {
    "name": "Tagbongabong Elementary School",
    "sdo": "Agusan Del Norte",
    "lat": 9.0797515,
    "lng": 125.6150258,
    "implementationTypes": [
      "SCALING - ROUND 4"
    ],
    "multipleRounds": false
  },
  {
    "name": "Agusan Pequeno Elementary School",
    "sdo": "Butuan City",
    "lat": 8.9735585,
    "lng": 125.5258366,
    "implementationTypes": [
      "SCALING - ROUND 3"
    ],
    "multipleRounds": false
  },
  {
    "name": "AMBAGO Integrated School",
    "sdo": "Butuan City",
    "lat": 8.9626058,
    "lng": 125.5063661,
    "implementationTypes": [
      "SCALING - ROUND 3"
    ],
    "multipleRounds": false
  },
  {
    "name": "Bading Elementary School",
    "sdo": "Butuan City",
    "lat": 8.9656652,
    "lng": 125.5355583,
    "implementationTypes": [
      "SCALING - ROUND 3"
    ],
    "multipleRounds": false
  },
  {
    "name": "BLISS Elementary School",
    "sdo": "Butuan City",
    "lat": 8.953646080071767,
    "lng": 125.4997159,
    "implementationTypes": [
      "SCALING - ROUND 3",
      "SCALING - ROUND 4"
    ],
    "multipleRounds": true
  },
  {
    "name": "Buhangin Elementary School",
    "sdo": "Butuan City",
    "lat": 8.946876139761947,
    "lng": 125.5496059460327,
    "implementationTypes": [
      "SCALING - ROUND 3",
      "SCALING - ROUND 4"
    ],
    "multipleRounds": true
  },
  {
    "name": "F.R. Sibayan Central Elem. School",
    "sdo": "Butuan City",
    "lat": 8.954924531216964,
    "lng": 125.56528251627448,
    "implementationTypes": [
      "SCALING - ROUND 3"
    ],
    "multipleRounds": false
  },
  {
    "name": "Jose T. Domingo, Sr. Central Elementary School",
    "sdo": "Butuan City",
    "lat": 8.954227677820844,
    "lng": 125.53174495866448,
    "implementationTypes": [
      "SCALING - ROUND 3"
    ],
    "multipleRounds": false
  },
  {
    "name": "Obrero Elementary School",
    "sdo": "Butuan City",
    "lat": 8.962865603260827,
    "lng": 125.53803478425088,
    "implementationTypes": [
      "SCALING - ROUND 3"
    ],
    "multipleRounds": false
  },
  {
    "name": "West Integrated School",
    "sdo": "Butuan City",
    "lat": 8.94437759035883,
    "lng": 125.5350176776939,
    "implementationTypes": [
      "SCALING - ROUND 3",
      "SCALING - ROUND 4"
    ],
    "multipleRounds": true
  },
  {
    "name": "Ong Yiu Central Elementary School",
    "sdo": "Butuan City",
    "lat": 8.956167343844449,
    "lng": 125.53717445489768,
    "implementationTypes": [
      "SCALING - ROUND 3",
      "SCALING - ROUND 4"
    ],
    "multipleRounds": true
  },
  {
    "name": "Bagumbayan Elementary School",
    "sdo": "Navotas",
    "lat": 14.658256475989694,
    "lng": 120.9484572822135,
    "implementationTypes": [
      "SCALING - ROUND 1",
      "SCALING - ROUND 2"
    ],
    "multipleRounds": true
  },
  {
    "name": "Bangkulasi Elementary School",
    "sdo": "Navotas",
    "lat": 14.651282345370184,
    "lng": 120.95301089902065,
    "implementationTypes": [
      "SCALING - ROUND 1",
      "SCALING - ROUND 2"
    ],
    "multipleRounds": true
  },
  {
    "name": "Dagat-Dagatan Elementary School",
    "sdo": "Navotas",
    "lat": 14.650858025700485,
    "lng": 120.95660439902058,
    "implementationTypes": [
      "SCALING - ROUND 1"
    ],
    "multipleRounds": false
  },
  {
    "name": "Kapitbahayan Elementary School",
    "sdo": "Navotas",
    "lat": 14.645072743921723,
    "lng": 120.95751048243913,
    "implementationTypes": [
      "SCALING - ROUND 1"
    ],
    "multipleRounds": false
  },
  {
    "name": "Navotas Elementary School",
    "sdo": "Navotas",
    "lat": 14.662763102816355,
    "lng": 120.94227812291575,
    "implementationTypes": [
      "SCALING - ROUND 1"
    ],
    "multipleRounds": false
  },
  {
    "name": "Navotas I Elementary School",
    "sdo": "Navotas",
    "lat": 14.662771430451672,
    "lng": 120.9454035254606,
    "implementationTypes": [
      "SCALING - ROUND 1"
    ],
    "multipleRounds": false
  },
  {
    "name": "North Bay Boulevard Elementary School",
    "sdo": "Navotas",
    "lat": 14.644365572901114,
    "lng": 120.95329829765421,
    "implementationTypes": [
      "SCALING - ROUND 1"
    ],
    "multipleRounds": false
  },
  {
    "name": "North Bay Boulevard North Elementary School",
    "sdo": "Navotas",
    "lat": 14.648080857971935,
    "lng": 120.95060419104573,
    "implementationTypes": [
      "SCALING - ROUND 1"
    ],
    "multipleRounds": false
  },
  {
    "name": "San Rafael Vill. Elementary School",
    "sdo": "Navotas",
    "lat": 14.637079530993216,
    "lng": 120.96523268313119,
    "implementationTypes": [
      "SCALING - ROUND 1"
    ],
    "multipleRounds": false
  },
  {
    "name": "San Roque Elementary School",
    "sdo": "Navotas",
    "lat": 14.669506521824404,
    "lng": 120.9381285492944,
    "implementationTypes": [
      "SCALING - ROUND 1"
    ],
    "multipleRounds": false
  },
  {
    "name": "Tangos Elementary School",
    "sdo": "Navotas",
    "lat": 14.673828517048436,
    "lng": 120.93496526355625,
    "implementationTypes": [
      "SCALING - ROUND 1"
    ],
    "multipleRounds": false
  },
  {
    "name": "Tanza Elementary School",
    "sdo": "Navotas",
    "lat": 14.678591938068642,
    "lng": 120.93458482546107,
    "implementationTypes": [
      "SCALING - ROUND 1"
    ],
    "multipleRounds": false
  },
  {
    "name": "Wawa Elementary School",
    "sdo": "Navotas",
    "lat": 14.679918127106971,
    "lng": 120.9348392384448,
    "implementationTypes": [
      "SCALING - ROUND 1"
    ],
    "multipleRounds": false
  },
  {
    "name": "Andres Bonifacio Elementary School",
    "sdo": "Manila",
    "lat": 14.631972086333489,
    "lng": 120.9794691685103,
    "implementationTypes": [
      "SCALING - ROUND 1",
      "SCALING - ROUND 2"
    ],
    "multipleRounds": true
  },
  {
    "name": "A. C. Herrera Elementary School",
    "sdo": "Manila",
    "lat": 14.634349555127248,
    "lng": 120.98061181436279,
    "implementationTypes": [
      "SCALING - ROUND 1",
      "SCALING - ROUND 2"
    ],
    "multipleRounds": true
  },
  {
    "name": "Beata Elementary School",
    "sdo": "Manila",
    "lat": 14.590317731562068,
    "lng": 121.01272844189413,
    "implementationTypes": [
      "SCALING - ROUND 1",
      "SCALING - ROUND 2"
    ],
    "multipleRounds": true
  },
  {
    "name": "Dr. Benigno V. Aldana Elementary School",
    "sdo": "Manila",
    "lat": 14.60598462818537,
    "lng": 121.00232762415602,
    "implementationTypes": [
      "SCALING - ROUND 1",
      "SCALING - ROUND 2"
    ],
    "multipleRounds": true
  },
  {
    "name": "I. Delos Reyes Elementary School",
    "sdo": "Manila",
    "lat": 14.608457541842808,
    "lng": 120.96866255854015,
    "implementationTypes": [
      "SCALING - ROUND 1",
      "SCALING - ROUND 2"
    ],
    "multipleRounds": true
  },
  {
    "name": "J. C. de Jesus Elementary School",
    "sdo": "Manila",
    "lat": 14.614715192184152,
    "lng": 120.96945051712035,
    "implementationTypes": [
      "SCALING - ROUND 1",
      "SCALING - ROUND 2"
    ],
    "multipleRounds": true
  },
  {
    "name": "M. Roxas De Ayala Elementary School",
    "sdo": "Manila",
    "lat": 14.588348800615575,
    "lng": 121.02302693579901,
    "implementationTypes": [
      "SCALING - ROUND 1",
      "SCALING - ROUND 2"
    ],
    "multipleRounds": true
  },
  {
    "name": "Pio Del Pilar Elementary School",
    "sdo": "Manila",
    "lat": 14.60105715921853,
    "lng": 121.00409497487037,
    "implementationTypes": [
      "SCALING - ROUND 1",
      "SCALING - ROUND 2"
    ],
    "multipleRounds": true
  },
  {
    "name": "T. Paez Elementary School",
    "sdo": "Manila",
    "lat": 14.630769138412912,
    "lng": 120.96786466306999,
    "implementationTypes": [
      "SCALING - ROUND 1",
      "SCALING - ROUND 2"
    ],
    "multipleRounds": true
  },
  {
    "name": "M. Agoncillo Elementary School",
    "sdo": "Manila",
    "lat": 14.592880790298766,
    "lng": 120.95694533665855,
    "implementationTypes": [
      "SCALING - ROUND 1"
    ],
    "multipleRounds": false
  },
  {
    "name": "Fort Aguinaldo Elementary School",
    "sdo": "Quezon City",
    "lat": 14.601275899946355,
    "lng": 121.06202899965776,
    "implementationTypes": [
      "SCALING - ROUND 2"
    ],
    "multipleRounds": false
  },
  {
    "name": "Adriatico Memorial School",
    "sdo": "Calapan City",
    "lat": 13.410821403821842,
    "lng": 121.17733516275209,
    "implementationTypes": [
      "Pilot - IPA Arm",
      "SCALING - ROUND 2"
    ],
    "multipleRounds": true
  },
  {
    "name": "Bayanan II Elementary School",
    "sdo": "Calapan City",
    "lat": 13.357129264115732,
    "lng": 121.16983099729605,
    "implementationTypes": [
      "SCALING - ROUND 1",
      "SCALING - ROUND 2"
    ],
    "multipleRounds": true
  },
  {
    "name": "Bucayao Elementary School",
    "sdo": "Calapan City",
    "lat": 13.306462772637028,
    "lng": 121.19175387809194,
    "implementationTypes": [
      "SCALING - ROUND 1",
      "SCALING - ROUND 2"
    ],
    "multipleRounds": true
  },
  {
    "name": "Bulusan Elementary School",
    "sdo": "Calapan City",
    "lat": 14.908703691650787,
    "lng": 120.74248142231536,
    "implementationTypes": [
      "SCALING - ROUND 1",
      "SCALING - ROUND 2"
    ],
    "multipleRounds": true
  },
  {
    "name": "Calapan Central School",
    "sdo": "Calapan City",
    "lat": 13.415395225975473,
    "lng": 121.17996514141505,
    "implementationTypes": [
      "Pilot - IPA Arm"
    ],
    "multipleRounds": false
  },
  {
    "name": "Camansihan Elementary School",
    "sdo": "Calapan City",
    "lat": 13.33406904595462,
    "lng": 121.22611311676258,
    "implementationTypes": [
      "SCALING - ROUND 1",
      "SCALING - ROUND 2"
    ],
    "multipleRounds": true
  },
  {
    "name": "Camilmil Central School",
    "sdo": "Calapan City",
    "lat": 13.404756188301695,
    "lng": 121.17764016714708,
    "implementationTypes": [
      "Pilot - IPA Arm",
      "SCALING - ROUND 2"
    ],
    "multipleRounds": true
  },
  {
    "name": "Canubing I Elementary School",
    "sdo": "Calapan City",
    "lat": 13.358117444145359,
    "lng": 121.1356777417993,
    "implementationTypes": [
      "SCALING - ROUND 1",
      "SCALING - ROUND 2"
    ],
    "multipleRounds": true
  },
  {
    "name": "Canubing II Elementary School",
    "sdo": "Calapan City",
    "lat": 13.317409796505935,
    "lng": 121.11747533623289,
    "implementationTypes": [
      "Pilot - DepEd Arm",
      "SCALING - ROUND 2"
    ],
    "multipleRounds": true
  },
  {
    "name": "Guinobatan Elementary School",
    "sdo": "Calapan City",
    "lat": 13.388132292455426,
    "lng": 121.18373016143356,
    "implementationTypes": [
      "SCALING - ROUND 1",
      "SCALING - ROUND 2"
    ],
    "multipleRounds": true
  },
  {
    "name": "Lalud Elementary School",
    "sdo": "Calapan City",
    "lat": 13.397888674900601,
    "lng": 121.17480454245784,
    "implementationTypes": [
      "SCALING - ROUND 1",
      "SCALING - ROUND 2"
    ],
    "multipleRounds": true
  },
  {
    "name": "Lazareto Elementary School",
    "sdo": "Calapan City",
    "lat": 13.428513289909523,
    "lng": 121.19975947380952,
    "implementationTypes": [
      "Pilot - DepEd Arm",
      "SCALING - ROUND 2"
    ],
    "multipleRounds": true
  },
  {
    "name": "Managpi Elementary School",
    "sdo": "Calapan City",
    "lat": 13.32743574787435,
    "lng": 121.19738014486876,
    "implementationTypes": [
      "SCALING - ROUND 1",
      "SCALING - ROUND 2"
    ],
    "multipleRounds": true
  },
  {
    "name": "N. Aboboto Memorial School",
    "sdo": "Calapan City",
    "lat": 13.365256875032768,
    "lng": 121.18983896924627,
    "implementationTypes": [
      "Pilot - IPA Arm"
    ],
    "multipleRounds": false
  },
  {
    "name": "Parang Elementary School",
    "sdo": "Calapan City",
    "lat": 13.40190723456325,
    "lng": 121.21745922018226,
    "implementationTypes": [
      "SCALING - ROUND 1",
      "SCALING - ROUND 2"
    ],
    "multipleRounds": true
  },
  {
    "name": "San Antonio Elementary School",
    "sdo": "Calapan City",
    "lat": 13.426211017623615,
    "lng": 121.19562306798154,
    "implementationTypes": [
      "Pilot - DepEd Arm",
      "SCALING - ROUND 2"
    ],
    "multipleRounds": true
  },
  {
    "name": "Sta. Isabel Elementary School",
    "sdo": "Calapan City",
    "lat": 13.368047832119533,
    "lng": 121.15932134643333,
    "implementationTypes": [
      "Pilot - IPA Arm",
      "SCALING - ROUND 2"
    ],
    "multipleRounds": true
  },
  {
    "name": "Sto. Niño Elementary School",
    "sdo": "Calapan City",
    "lat": 13.406290471963418,
    "lng": 121.18544096876398,
    "implementationTypes": [
      "SCALING - ROUND 1",
      "SCALING - ROUND 2"
    ],
    "multipleRounds": true
  },
  {
    "name": "Teresa C. Montellano Memorial School",
    "sdo": "Calapan City",
    "lat": 13.409713368302382,
    "lng": 121.15539840693023,
    "implementationTypes": [
      "Pilot - DepEd Arm",
      "SCALING - ROUND 2"
    ],
    "multipleRounds": true
  },
  {
    "name": "Agumaymayan Elementary School",
    "sdo": "Marinduque",
    "lat": 13.439566790077166,
    "lng": 121.88790403950422,
    "implementationTypes": [
      "SCALING - ROUND 1",
      "SCALING - ROUND 2",
      "SCALING - SUMMER 2025"
    ],
    "multipleRounds": true
  },
  {
    "name": "Ipil Elementary School",
    "sdo": "Marinduque",
    "lat": 13.48003468506711,
    "lng": 122.03301770463173,
    "implementationTypes": [
      "SCALING - ROUND 1",
      "SCALING - ROUND 2",
      "SCALING - ROUND 3",
      "SCALING - ROUND 4"
    ],
    "multipleRounds": true
  },
  {
    "name": "Lusok Elementary School",
    "sdo": "Marinduque",
    "lat": 13.499268640934114,
    "lng": 121.9997843644302,
    "implementationTypes": [
      "SCALING - ROUND 1",
      "SCALING - ROUND 2",
      "SCALING - ROUND 3",
      "SCALING - ROUND 4"
    ],
    "multipleRounds": true
  },
  {
    "name": "Maniwaya Elementary School",
    "sdo": "Marinduque",
    "lat": 13.526876430316719,
    "lng": 122.11907757792527,
    "implementationTypes": [
      "SCALING - ROUND 1",
      "SCALING - ROUND 2",
      "SCALING - SUMMER 2025"
    ],
    "multipleRounds": true
  },
  {
    "name": "Marlangga Elementary School",
    "sdo": "Marinduque",
    "lat": 13.327155626940783,
    "lng": 122.08976989326155,
    "implementationTypes": [
      "SCALING - ROUND 1",
      "SCALING - ROUND 2",
      "SCALING - SUMMER 2025"
    ],
    "multipleRounds": true
  },
  {
    "name": "Tanza Elementary School",
    "sdo": "Marinduque",
    "lat": 13.455006277982822,
    "lng": 121.84227511616044,
    "implementationTypes": [
      "SCALING - ROUND 1",
      "SCALING - ROUND 2",
      "SCALING - ROUND 3"
    ],
    "multipleRounds": true
  },
  {
    "name": "Bancoro Elementary School",
    "sdo": "Marinduque",
    "lat": 13.248272265256674,
    "lng": 121.98238530178125,
    "implementationTypes": [
      "SCALING - ROUND 1",
      "SCALING - SUMMER 2025"
    ],
    "multipleRounds": true
  },
  {
    "name": "Caigangan Elementary School",
    "sdo": "Marinduque",
    "lat": 13.25867114424322,
    "lng": 121.93169542209516,
    "implementationTypes": [
      "SCALING - ROUND 1"
    ],
    "multipleRounds": false
  },
  {
    "name": "Makapuyat Elementary School",
    "sdo": "Marinduque",
    "lat": 13.436610003409156,
    "lng": 122.07541562208975,
    "implementationTypes": [
      "SCALING - ROUND 1"
    ],
    "multipleRounds": false
  },
  {
    "name": "Buenavista Central School",
    "sdo": "Marinduque",
    "lat": 13.255404974353597,
    "lng": 121.94312467513733,
    "implementationTypes": [
      "Pilot - DepEd Arm",
      "SCALING - SUMMER 2025"
    ],
    "multipleRounds": true
  },
  {
    "name": "Balanacan Elementary School",
    "sdo": "Marinduque",
    "lat": 13.52902307357155,
    "lng": 121.86850025424802,
    "implementationTypes": [
      "Pilot - DepEd Arm",
      "SCALING - ROUND 3"
    ],
    "multipleRounds": true
  },
  {
    "name": "Don Luis Hidalgo Memorial School",
    "sdo": "Marinduque",
    "lat": 13.446509527936332,
    "lng": 121.84024621076705,
    "implementationTypes": [
      "Pilot - DepEd Arm",
      "SCALING - ROUND 3"
    ],
    "multipleRounds": true
  },
  {
    "name": "Gasan Central School",
    "sdo": "Marinduque",
    "lat": 13.324273547008191,
    "lng": 121.84790099326146,
    "implementationTypes": [
      "Pilot - DepEd Arm",
      "SCALING - ROUND 3",
      "SCALING - ROUND 4"
    ],
    "multipleRounds": true
  },
  {
    "name": "Mogpog Central School",
    "sdo": "Marinduque",
    "lat": 13.473238921876236,
    "lng": 121.8606137932647,
    "implementationTypes": [
      "Pilot - DepEd Arm",
      "SCALING - SUMMER 2025",
      "SCALING - ROUND 3",
      "SCALING - ROUND 4"
    ],
    "multipleRounds": true
  },
  {
    "name": "Santa Cruz East Central School",
    "sdo": "Marinduque",
    "lat": 13.480040443517277,
    "lng": 122.03299245872027,
    "implementationTypes": [
      "Pilot - DepEd Arm"
    ],
    "multipleRounds": false
  },
  {
    "name": "Torrijos Central School",
    "sdo": "Marinduque",
    "lat": 13.320914849531167,
    "lng": 122.08884256627256,
    "implementationTypes": [
      "Pilot - DepEd Arm",
      "SCALING - SUMMER 2025",
      "SCALING - ROUND 3",
      "SCALING - ROUND 4"
    ],
    "multipleRounds": true
  },
  {
    "name": "Balimbing Elementary School",
    "sdo": "Marinduque",
    "lat": 13.439120515457342,
    "lng": 121.87431841066682,
    "implementationTypes": [
      "SCALING - SUMMER 2025"
    ],
    "multipleRounds": false
  },
  {
    "name": "Bangbang Elementary School",
    "sdo": "Marinduque",
    "lat": 13.343794683346218,
    "lng": 121.83578976038098,
    "implementationTypes": [
      "SCALING - SUMMER 2025",
      "SCALING - ROUND 3"
    ],
    "multipleRounds": true
  },
  {
    "name": "Poctoy Elementary School",
    "sdo": "Marinduque",
    "lat": 13.332922664636033,
    "lng": 122.09833099510804,
    "implementationTypes": [
      "SCALING - ROUND 1",
      "SCALING - ROUND 2",
      "SCALING - SUMMER 2025",
      "SCALING - ROUND 3",
      "SCALING - ROUND 4"
    ],
    "multipleRounds": true
  },
  {
    "name": "Bicas-Bicas Elementary School",
    "sdo": "Marinduque",
    "lat": 13.239813735514774,
    "lng": 121.9757380350851,
    "implementationTypes": [
      "SCALING - SUMMER 2025"
    ],
    "multipleRounds": false
  },
  {
    "name": "Binunga Elementary School",
    "sdo": "Marinduque",
    "lat": 13.216241276318259,
    "lng": 121.97715880815706,
    "implementationTypes": [
      "SCALING - SUMMER 2025"
    ],
    "multipleRounds": false
  },
  {
    "name": "Labo Elementary School",
    "sdo": "Marinduque",
    "lat": 13.436198844348093,
    "lng": 121.96980775522157,
    "implementationTypes": [
      "SCALING - SUMMER 2025",
      "SCALING - ROUND 3",
      "SCALING - ROUND 4"
    ],
    "multipleRounds": true
  },
  {
    "name": "Libas Elementary School",
    "sdo": "Marinduque",
    "lat": 13.242598625303318,
    "lng": 121.9559839247592,
    "implementationTypes": [
      "SCALING - SUMMER 2025"
    ],
    "multipleRounds": false
  },
  {
    "name": "Lipa Elementary School",
    "sdo": "Marinduque",
    "lat": 13.484633613256692,
    "lng": 122.01824284319932,
    "implementationTypes": [
      "SCALING - SUMMER 2025"
    ],
    "multipleRounds": false
  },
  {
    "name": "Makulapnit Elementary School",
    "sdo": "Marinduque",
    "lat": 13.406376941019607,
    "lng": 122.00036762608852,
    "implementationTypes": [
      "SCALING - SUMMER 2025",
      "SCALING - ROUND 3"
    ],
    "multipleRounds": true
  },
  {
    "name": "Malibago Elementary School",
    "sdo": "Marinduque",
    "lat": 13.27707939508787,
    "lng": 122.01309996000278,
    "implementationTypes": [
      "SCALING - SUMMER 2025",
      "SCALING - ROUND 3"
    ],
    "multipleRounds": true
  },
  {
    "name": "Maligaya Elementary School",
    "sdo": "Marinduque",
    "lat": 13.449239532436327,
    "lng": 121.83726934305221,
    "implementationTypes": [
      "SCALING - SUMMER 2025"
    ],
    "multipleRounds": false
  },
  {
    "name": "Masiga Elementary School",
    "sdo": "Marinduque",
    "lat": 13.360371939734662,
    "lng": 121.82817052023515,
    "implementationTypes": [
      "SCALING - SUMMER 2025",
      "SCALING - ROUND 3",
      "SCALING - ROUND 4"
    ],
    "multipleRounds": true
  },
  {
    "name": "Matalaba Elementary School",
    "sdo": "Marinduque",
    "lat": 13.457682566447525,
    "lng": 122.05803592629844,
    "implementationTypes": [
      "SCALING - SUMMER 2025",
      "SCALING - ROUND 3"
    ],
    "multipleRounds": true
  },
  {
    "name": "Mongpong Elementary School",
    "sdo": "Marinduque",
    "lat": 13.51841856368453,
    "lng": 122.17055000724278,
    "implementationTypes": [
      "SCALING - SUMMER 2025",
      "SCALING - ROUND 3",
      "SCALING - ROUND 4"
    ],
    "multipleRounds": true
  },
  {
    "name": "Pag-asa Elementary School",
    "sdo": "Marinduque",
    "lat": 13.25865769071294,
    "lng": 121.93304927332099,
    "implementationTypes": [
      "SCALING - SUMMER 2025"
    ],
    "multipleRounds": false
  },
  {
    "name": "Polo Elementary School",
    "sdo": "Marinduque",
    "lat": 13.502228545385607,
    "lng": 122.08910660335827,
    "implementationTypes": [
      "SCALING - SUMMER 2025",
      "SCALING - ROUND 3",
      "SCALING - ROUND 4"
    ],
    "multipleRounds": true
  },
  {
    "name": "San Antonio Elementary School",
    "sdo": "Marinduque",
    "lat": 13.447866612581574,
    "lng": 121.98231302147867,
    "implementationTypes": [
      "SCALING - SUMMER 2025"
    ],
    "multipleRounds": false
  },
  {
    "name": "Tabionan Elementary School",
    "sdo": "Marinduque",
    "lat": 13.321417334409999,
    "lng": 121.89921917382918,
    "implementationTypes": [
      "SCALING - SUMMER 2025"
    ],
    "multipleRounds": false
  },
  {
    "name": "Tapuyan Elementary School",
    "sdo": "Marinduque",
    "lat": 13.366532282035493,
    "lng": 121.85244622959536,
    "implementationTypes": [
      "SCALING - SUMMER 2025"
    ],
    "multipleRounds": false
  },
  {
    "name": "Tungib Elementrary School",
    "sdo": "Marinduque",
    "lat": 13.203516833591834,
    "lng": 122.01860413178159,
    "implementationTypes": [
      "SCALING - SUMMER 2025"
    ],
    "multipleRounds": false
  },
  {
    "name": "Banuyo Elementary School",
    "sdo": "Marinduque",
    "lat": 12.925680801820535,
    "lng": 123.67485475168596,
    "implementationTypes": [
      "SCALING - SUMMER 2025"
    ],
    "multipleRounds": false
  },
  {
    "name": "Manlibunan Elementary School",
    "sdo": "Marinduque",
    "lat": 13.491671052476384,
    "lng": 122.03127764589115,
    "implementationTypes": [
      "SCALING - ROUND 3"
    ],
    "multipleRounds": false
  },
  {
    "name": "Mahinhin Elementary School",
    "sdo": "Marinduque",
    "lat": 13.44234495987284,
    "lng": 121.9408659377246,
    "implementationTypes": [
      "SCALING - ROUND 3"
    ],
    "multipleRounds": false
  },
  {
    "name": "Sibuyao Elementary School",
    "sdo": "Marinduque",
    "lat": 13.339338135305274,
    "lng": 122.00761608375639,
    "implementationTypes": [
      "SCALING - ROUND 3"
    ],
    "multipleRounds": false
  },
  {
    "name": "Poras Elementary School",
    "sdo": "Marinduque",
    "lat": 13.457461866508881,
    "lng": 121.83239465492113,
    "implementationTypes": [
      "SCALING - ROUND 3",
      "SCALING - ROUND 4"
    ],
    "multipleRounds": true
  },
  {
    "name": "Puyog Elementary School",
    "sdo": "Marinduque",
    "lat": 13.435938355642396,
    "lng": 121.8983455549211,
    "implementationTypes": [
      "SCALING - ROUND 3"
    ],
    "multipleRounds": false
  },
  {
    "name": "Bangbangalon Elementary School",
    "sdo": "Marinduque",
    "lat": 13.44263408745426,
    "lng": 121.82658217921842,
    "implementationTypes": [
      "SCALING - ROUND 3"
    ],
    "multipleRounds": false
  },
  {
    "name": "Cawit Elementary School",
    "sdo": "Marinduque",
    "lat": 13.450701906848593,
    "lng": 121.83685623859583,
    "implementationTypes": [
      "SCALING - ROUND 3"
    ],
    "multipleRounds": false
  },
  {
    "name": "Don Severino Lardizabal Memorial School",
    "sdo": "Marinduque",
    "lat": 13.449468890569342,
    "lng": 121.83727284142945,
    "implementationTypes": [
      "SCALING - ROUND 3"
    ],
    "multipleRounds": false
  },
  {
    "name": "Duyay Elementary School",
    "sdo": "Marinduque",
    "lat": 13.372994373149814,
    "lng": 121.87219523957654,
    "implementationTypes": [
      "SCALING - ROUND 3"
    ],
    "multipleRounds": false
  },
  {
    "name": "Tapian Elementary School",
    "sdo": "Marinduque",
    "lat": 13.442059076137685,
    "lng": 121.98675705449206,
    "implementationTypes": [
      "SCALING - ROUND 3"
    ],
    "multipleRounds": false
  },
  {
    "name": "Santa Cruz North Central School (Landy Elementary School)",
    "sdo": "Marinduque",
    "lat": 13.49020084348117,
    "lng": 122.0069168819054,
    "implementationTypes": [
      "SCALING - ROUND 3"
    ],
    "multipleRounds": false
  },
  {
    "name": "Libjo Elementary School",
    "sdo": "Marinduque",
    "lat": 13.466424833623329,
    "lng": 122.01767992238048,
    "implementationTypes": [
      "SCALING - ROUND 3"
    ],
    "multipleRounds": false
  },
  {
    "name": "Antipolo Elementary School",
    "sdo": "Marinduque",
    "lat": 13.27555198048943,
    "lng": 121.90334309949512,
    "implementationTypes": [
      "SCALING - ROUND 3",
      "SCALING - ROUND 4"
    ],
    "multipleRounds": true
  },
  {
    "name": "Bahi Elementary School",
    "sdo": "Marinduque",
    "lat": 13.570618366883709,
    "lng": 121.86029887815894,
    "implementationTypes": [
      "SCALING - ROUND 3"
    ],
    "multipleRounds": false
  },
  {
    "name": "Dawis Elementary School",
    "sdo": "Marinduque",
    "lat": 13.286156620527647,
    "lng": 121.88936283931116,
    "implementationTypes": [
      "SCALING - ROUND 3"
    ],
    "multipleRounds": false
  },
  {
    "name": "Buangan Elementary School",
    "sdo": "Marinduque",
    "lat": 13.313678315876027,
    "lng": 122.06900388190378,
    "implementationTypes": [
      "SCALING - ROUND 3",
      "SCALING - ROUND 4"
    ],
    "multipleRounds": true
  },
  {
    "name": "Gaspar Elementary School",
    "sdo": "Marinduque",
    "lat": 13.250854639783633,
    "lng": 121.8634542377233,
    "implementationTypes": [
      "SCALING - ROUND 3",
      "SCALING - ROUND 4"
    ],
    "multipleRounds": true
  },
  {
    "name": "Cabuyo Elementary School",
    "sdo": "Marinduque",
    "lat": 13.284566939130206,
    "lng": 122.05455428349143,
    "implementationTypes": [
      "SCALING - ROUND 3"
    ],
    "multipleRounds": false
  },
  {
    "name": "Pangi Elementary School",
    "sdo": "Marinduque",
    "lat": 13.336685537484831,
    "lng": 121.8423455837565,
    "implementationTypes": [
      "SCALING - ROUND 3"
    ],
    "multipleRounds": false
  },
  {
    "name": "Pinggan Elementary School",
    "sdo": "Marinduque",
    "lat": 13.281158886320021,
    "lng": 121.87878255114813,
    "implementationTypes": [
      "SCALING - ROUND 3"
    ],
    "multipleRounds": false
  },
  {
    "name": "Cagpo Elementary School",
    "sdo": "Marinduque",
    "lat": 13.340924590027166,
    "lng": 122.1131093190081,
    "implementationTypes": [
      "SCALING - ROUND 3"
    ],
    "multipleRounds": false
  },
  {
    "name": "Bintakay Elementary School",
    "sdo": "Marinduque",
    "lat": 13.474694791084074,
    "lng": 121.86133555306914,
    "implementationTypes": [
      "SCALING - ROUND 3",
      "SCALING - ROUND 4"
    ],
    "multipleRounds": true
  },
  {
    "name": "Bocboc Elementary School",
    "sdo": "Marinduque",
    "lat": 13.474629576498675,
    "lng": 121.86140165933688,
    "implementationTypes": [
      "SCALING - ROUND 3"
    ],
    "multipleRounds": false
  },
  {
    "name": "Capayang Elementary School",
    "sdo": "Marinduque",
    "lat": 13.474653057070745,
    "lng": 121.86136773957733,
    "implementationTypes": [
      "SCALING - ROUND 3"
    ],
    "multipleRounds": false
  },
  {
    "name": "Guisian Elementary School",
    "sdo": "Marinduque",
    "lat": 13.545372884353972,
    "lng": 121.8909865134918,
    "implementationTypes": [
      "SCALING - ROUND 3"
    ],
    "multipleRounds": false
  },
  {
    "name": "Laon Elementary School",
    "sdo": "Marinduque",
    "lat": 13.485237576618276,
    "lng": 121.85587064840999,
    "implementationTypes": [
      "SCALING - ROUND 3",
      "SCALING - ROUND 4"
    ],
    "multipleRounds": true
  },
  {
    "name": "Mendez Elementary School",
    "sdo": "Marinduque",
    "lat": 13.474713586878531,
    "lng": 121.8613498251312,
    "implementationTypes": [
      "SCALING - ROUND 3"
    ],
    "multipleRounds": false
  },
  {
    "name": "Buyabod Elementary School",
    "sdo": "Marinduque",
    "lat": 13.46660496409907,
    "lng": 122.05276057026565,
    "implementationTypes": [
      "SCALING - ROUND 3",
      "SCALING - ROUND 4"
    ],
    "multipleRounds": true
  },
  {
    "name": "Lamesa Elementary School",
    "sdo": "Marinduque",
    "lat": 13.488779724310282,
    "lng": 121.95139318446846,
    "implementationTypes": [
      "SCALING - ROUND 3",
      "SCALING - ROUND 4"
    ],
    "multipleRounds": true
  },
  {
    "name": "Tarug Elementary School",
    "sdo": "Marinduque",
    "lat": 13.496989815101843,
    "lng": 121.9297946399678,
    "implementationTypes": [
      "SCALING - ROUND 3"
    ],
    "multipleRounds": false
  },
  {
    "name": "Ino Elementary School",
    "sdo": "Marinduque",
    "lat": 13.511497513256531,
    "lng": 121.85938991301471,
    "implementationTypes": [
      "SCALING - ROUND 3"
    ],
    "multipleRounds": false
  },
  {
    "name": "Sumangga Elementary School",
    "sdo": "Marinduque",
    "lat": 13.585064895214499,
    "lng": 121.89652022031768,
    "implementationTypes": [
      "SCALING - ROUND 3",
      "SCALING - ROUND 4"
    ],
    "multipleRounds": true
  },
  {
    "name": "Devilla Elementary School",
    "sdo": "Marinduque",
    "lat": 13.412906896745938,
    "lng": 122.03184260442147,
    "implementationTypes": [
      "SCALING - ROUND 3"
    ],
    "multipleRounds": false
  },
  {
    "name": "Tigwi Elementary School",
    "sdo": "Marinduque",
    "lat": 13.267575085799477,
    "lng": 122.04199092883695,
    "implementationTypes": [
      "SCALING - ROUND 3",
      "SCALING - ROUND 4"
    ],
    "multipleRounds": true
  },
  {
    "name": "Morales Elementary School",
    "sdo": "Marinduque",
    "lat": 13.486509772376484,
    "lng": 122.03334042278276,
    "implementationTypes": [
      "SCALING - ROUND 3"
    ],
    "multipleRounds": false
  },
  {
    "name": "Pulong Parang Elementary School",
    "sdo": "Marinduque",
    "lat": 13.423866844257462,
    "lng": 122.05975203957682,
    "implementationTypes": [
      "SCALING - ROUND 3"
    ],
    "multipleRounds": false
  },
  {
    "name": "Malinao Elementary School",
    "sdo": "Marinduque",
    "lat": 13.381300973895076,
    "lng": 122.11305158910154,
    "implementationTypes": [
      "SCALING - ROUND 3",
      "SCALING - ROUND 4"
    ],
    "multipleRounds": true
  },
  {
    "name": "Tawiran Elementary School",
    "sdo": "Marinduque",
    "lat": 13.449634286538087,
    "lng": 122.071172381905,
    "implementationTypes": [
      "SCALING - ROUND 3",
      "SCALING - ROUND 4"
    ],
    "multipleRounds": true
  },
  {
    "name": "Aturan Elementary School",
    "sdo": "Marinduque",
    "lat": 13.49226495768912,
    "lng": 121.9916698870865,
    "implementationTypes": [
      "SCALING - ROUND 3"
    ],
    "multipleRounds": false
  },
  {
    "name": "Baliis Elementary School",
    "sdo": "Marinduque",
    "lat": 13.488666398338806,
    "lng": 122.03333758241496,
    "implementationTypes": [
      "SCALING - ROUND 3",
      "SCALING - ROUND 4"
    ],
    "multipleRounds": true
  },
  {
    "name": "Balogo Elementary School",
    "sdo": "Marinduque",
    "lat": 13.503039330661323,
    "lng": 122.045935179246,
    "implementationTypes": [
      "SCALING - ROUND 3",
      "SCALING - ROUND 4"
    ],
    "multipleRounds": true
  },
  {
    "name": "Maranlig Elementary School",
    "sdo": "Marinduque",
    "lat": 13.36145047859584,
    "lng": 122.06351791844874,
    "implementationTypes": [
      "SCALING - ROUND 3"
    ],
    "multipleRounds": false
  },
  {
    "name": "Kamandugan Elementary School",
    "sdo": "Marinduque",
    "lat": 13.51296731301499,
    "lng": 121.995489508198,
    "implementationTypes": [
      "SCALING - ROUND 3",
      "SCALING - ROUND 4"
    ],
    "multipleRounds": true
  },
  {
    "name": "Kasily Elementary School",
    "sdo": "Marinduque",
    "lat": 13.518886844692624,
    "lng": 122.01934786656125,
    "implementationTypes": [
      "SCALING - ROUND 3"
    ],
    "multipleRounds": false
  },
  {
    "name": "Gabaldon Elementary School",
    "sdo": "Marinduque",
    "lat": 13.47733085492286,
    "lng": 122.02391531074113,
    "implementationTypes": [
      "SCALING - ROUND 3",
      "SCALING - ROUND 4"
    ],
    "multipleRounds": true
  },
  {
    "name": "Abanico Elementary School",
    "sdo": "Puerto Princesa City",
    "lat": 9.763491856272243,
    "lng": 118.7346671533369,
    "implementationTypes": [
      "SCALING - ROUND 2",
      "SCALING - ROUND 3",
      "SCALING - ROUND 4"
    ],
    "multipleRounds": true
  },
  {
    "name": "Antonio Bautista Air Base (ABAB) Elementary School",
    "sdo": "Puerto Princesa City",
    "lat": 9.747769964298799,
    "lng": 118.75718103552254,
    "implementationTypes": [
      "SCALING - ROUND 2",
      "SCALING - ROUND 3",
      "SCALING - ROUND 4"
    ],
    "multipleRounds": true
  },
  {
    "name": "Don Ramon Roces Memorial Elementary School",
    "sdo": "Puerto Princesa City",
    "lat": 9.730582722040724,
    "lng": 118.74221721573461,
    "implementationTypes": [
      "SCALING - ROUND 1",
      "SCALING - ROUND 2",
      "SCALING - SUMMER 2025",
      "SCALING - ROUND 3",
      "SCALING - ROUND 4"
    ],
    "multipleRounds": true
  },
  {
    "name": "East Central School",
    "sdo": "Puerto Princesa City",
    "lat": 9.738039771285539,
    "lng": 118.73673295782973,
    "implementationTypes": [
      "SCALING - ROUND 1",
      "SCALING - ROUND 2",
      "SCALING - SUMMER 2025",
      "SCALING - ROUND 3",
      "SCALING - ROUND 4"
    ],
    "multipleRounds": true
  },
  {
    "name": "Francisco Ubay Memorial Elementary School",
    "sdo": "Puerto Princesa City",
    "lat": 9.795175674661555,
    "lng": 118.74957378461912,
    "implementationTypes": [
      "SCALING - ROUND 1",
      "SCALING - ROUND 2",
      "SCALING - SUMMER 2025",
      "SCALING - ROUND 3",
      "SCALING - ROUND 4"
    ],
    "multipleRounds": true
  },
  {
    "name": "Loreto-Santos Lanzanas Central School",
    "sdo": "Puerto Princesa City",
    "lat": 9.760560037415516,
    "lng": 118.74745229319312,
    "implementationTypes": [
      "SCALING - ROUND 1",
      "SCALING - ROUND 2",
      "SCALING - ROUND 3",
      "SCALING - ROUND 4"
    ],
    "multipleRounds": true
  },
  {
    "name": "Mandaragat Elementary School",
    "sdo": "Puerto Princesa City",
    "lat": 9.747234082463802,
    "lng": 118.7380439221415,
    "implementationTypes": [
      "SCALING - ROUND 2",
      "SCALING - ROUND 3",
      "SCALING - ROUND 4"
    ],
    "multipleRounds": true
  },
  {
    "name": "Mangingisda Elementary School",
    "sdo": "Puerto Princesa City",
    "lat": 9.684878748099447,
    "lng": 118.75329311797041,
    "implementationTypes": [
      "SCALING - ROUND 2",
      "SCALING - ROUND 3",
      "SCALING - ROUND 4"
    ],
    "multipleRounds": true
  },
  {
    "name": "Manuel Austria Memorial Elementary School",
    "sdo": "Puerto Princesa City",
    "lat": 9.778935872866251,
    "lng": 118.76038582449445,
    "implementationTypes": [
      "SCALING - ROUND 2",
      "SCALING - ROUND 3",
      "SCALING - ROUND 4"
    ],
    "multipleRounds": true
  },
  {
    "name": "Mateo Jagmis Memorial Elementary School",
    "sdo": "Puerto Princesa City",
    "lat": 9.745569756461219,
    "lng": 118.74665007969857,
    "implementationTypes": [
      "SCALING - ROUND 1",
      "SCALING - ROUND 2",
      "SCALING - SUMMER 2025",
      "SCALING - ROUND 3",
      "SCALING - ROUND 4"
    ],
    "multipleRounds": true
  },
  {
    "name": "Mauricio Reynoso Sr. Memorial Elementary School",
    "sdo": "Puerto Princesa City",
    "lat": 9.734273585322294,
    "lng": 118.76235825086327,
    "implementationTypes": [
      "SCALING - ROUND 1",
      "SCALING - ROUND 2",
      "SCALING - SUMMER 2025",
      "SCALING - ROUND 3",
      "SCALING - ROUND 4"
    ],
    "multipleRounds": true
  },
  {
    "name": "Puerto Princesa Pilot Elementary School",
    "sdo": "Puerto Princesa City",
    "lat": 9.738616935753198,
    "lng": 118.73398483552242,
    "implementationTypes": [
      "SCALING - ROUND 1",
      "SCALING - ROUND 2",
      "SCALING - ROUND 3",
      "SCALING - ROUND 4"
    ],
    "multipleRounds": true
  },
  {
    "name": "Sicsican Elementary School",
    "sdo": "Puerto Princesa City",
    "lat": 9.79557993399964,
    "lng": 118.71002016389978,
    "implementationTypes": [
      "SCALING - ROUND 1",
      "SCALING - ROUND 2",
      "SCALING - ROUND 3",
      "SCALING - ROUND 4"
    ],
    "multipleRounds": true
  },
  {
    "name": "Sta. Lourdes Elementary School",
    "sdo": "Puerto Princesa City",
    "lat": 9.83264299330369,
    "lng": 118.72813829756171,
    "implementationTypes": [
      "SCALING - ROUND 2",
      "SCALING - SUMMER 2025",
      "SCALING - ROUND 3",
      "SCALING - ROUND 4"
    ],
    "multipleRounds": true
  },
  {
    "name": "Sta. Monica Elementary School",
    "sdo": "Puerto Princesa City",
    "lat": 9.795172517880362,
    "lng": 118.73456733552335,
    "implementationTypes": [
      "SCALING - ROUND 1",
      "SCALING - ROUND 2",
      "SCALING - ROUND 3",
      "SCALING - ROUND 4"
    ],
    "multipleRounds": true
  },
  {
    "name": "Tagburos Elementary School",
    "sdo": "Puerto Princesa City",
    "lat": 9.820576505160286,
    "lng": 118.74396004901804,
    "implementationTypes": [
      "SCALING - ROUND 2",
      "SCALING - ROUND 3"
    ],
    "multipleRounds": true
  },
  {
    "name": "Tiniguiban Elementary School",
    "sdo": "Puerto Princesa City",
    "lat": 9.775369500533214,
    "lng": 118.7379361618739,
    "implementationTypes": [
      "SCALING - ROUND 2",
      "SCALING - ROUND 3",
      "SCALING - ROUND 4"
    ],
    "multipleRounds": true
  },
  {
    "name": "Valentin Macasaet Sr. Memorial Elementary School",
    "sdo": "Puerto Princesa City",
    "lat": 9.800515288851884,
    "lng": 118.69788179276823,
    "implementationTypes": [
      "SCALING - ROUND 1",
      "SCALING - ROUND 2",
      "SCALING - ROUND 3",
      "SCALING - ROUND 4"
    ],
    "multipleRounds": true
  },
  {
    "name": "Wescom Elementary School",
    "sdo": "Puerto Princesa City",
    "lat": 9.748768632608629,
    "lng": 118.76986113779603,
    "implementationTypes": [
      "SCALING - ROUND 2",
      "SCALING - ROUND 3",
      "SCALING - ROUND 4"
    ],
    "multipleRounds": true
  },
  {
    "name": "West Central School",
    "sdo": "Puerto Princesa City",
    "lat": 9.740554380412679,
    "lng": 118.72908805086324,
    "implementationTypes": [
      "SCALING - ROUND 2",
      "SCALING - ROUND 3",
      "SCALING - ROUND 4"
    ],
    "multipleRounds": true
  },
  {
    "name": "Anilawan Elementary School",
    "sdo": "Puerto Princesa City",
    "lat": 10.744406,
    "lng": 122.260453,
    "implementationTypes": [
      "SCALING - ROUND 3",
      "SCALING - ROUND 4"
    ],
    "multipleRounds": true
  },
  {
    "name": "APLAYA ELEMENTARY SCHOOL",
    "sdo": "Puerto Princesa City",
    "lat": 9.8263837,
    "lng": 118.7550908,
    "implementationTypes": [
      "SCALING - ROUND 3",
      "SCALING - ROUND 4"
    ],
    "multipleRounds": true
  },
  {
    "name": "Babuyan Elementary School",
    "sdo": "Puerto Princesa City",
    "lat": 9.9869029,
    "lng": 118.9097533,
    "implementationTypes": [
      "SCALING - ROUND 3",
      "SCALING - ROUND 4"
    ],
    "multipleRounds": true
  },
  {
    "name": "Bacungan Elementary School",
    "sdo": "Puerto Princesa City",
    "lat": 9.9102759,
    "lng": 118.7027421,
    "implementationTypes": [
      "SCALING - ROUND 3",
      "SCALING - ROUND 4"
    ],
    "multipleRounds": true
  },
  {
    "name": "Bagong Bayan Elementary School",
    "sdo": "Puerto Princesa City",
    "lat": 9.7680761,
    "lng": 118.518589,
    "implementationTypes": [
      "SCALING - ROUND 3"
    ],
    "multipleRounds": false
  },
  {
    "name": "Bahile Elementary School",
    "sdo": "Puerto Princesa City",
    "lat": 9.9982558,
    "lng": 118.785213,
    "implementationTypes": [
      "SCALING - ROUND 3",
      "SCALING - ROUND 4"
    ],
    "multipleRounds": true
  },
  {
    "name": "Baruang Elementary School",
    "sdo": "Puerto Princesa City",
    "lat": 10.0295924,
    "lng": 118.8466654,
    "implementationTypes": [
      "SCALING - ROUND 3",
      "SCALING - ROUND 4"
    ],
    "multipleRounds": true
  },
  {
    "name": "Binduyan Elementary School",
    "sdo": "Puerto Princesa City",
    "lat": 9.9907384,
    "lng": 118.7949803,
    "implementationTypes": [
      "SCALING - ROUND 3",
      "SCALING - ROUND 4"
    ],
    "multipleRounds": true
  },
  {
    "name": "Bualbualan Elementary School",
    "sdo": "Puerto Princesa City",
    "lat": 9.8612402,
    "lng": 118.5701451,
    "implementationTypes": [
      "SCALING - ROUND 3",
      "SCALING - ROUND 4"
    ],
    "multipleRounds": true
  },
  {
    "name": "Buenavista Elementary School",
    "sdo": "Puerto Princesa City",
    "lat": 10.0662512,
    "lng": 118.8130664,
    "implementationTypes": [
      "SCALING - ROUND 3",
      "SCALING - ROUND 4"
    ],
    "multipleRounds": true
  },
  {
    "name": "Busngol Elementary School",
    "sdo": "Puerto Princesa City",
    "lat": 9.8459093,
    "lng": 118.7418853,
    "implementationTypes": [
      "SCALING - ROUND 3"
    ],
    "multipleRounds": false
  },
  {
    "name": "Cabayugan Elementary School",
    "sdo": "Puerto Princesa City",
    "lat": 10.1655272,
    "lng": 118.8783658,
    "implementationTypes": [
      "SCALING - ROUND 3",
      "SCALING - ROUND 4"
    ],
    "multipleRounds": true
  },
  {
    "name": "Concepcion Elementary School",
    "sdo": "Puerto Princesa City",
    "lat": 9.9965818,
    "lng": 119.0000781,
    "implementationTypes": [
      "SCALING - ROUND 3",
      "SCALING - ROUND 4"
    ],
    "multipleRounds": true
  },
  {
    "name": "Inagawan Elementary School",
    "sdo": "Puerto Princesa City",
    "lat": 9.5471312,
    "lng": 118.6441064,
    "implementationTypes": [
      "SCALING - ROUND 3",
      "SCALING - ROUND 4"
    ],
    "multipleRounds": true
  },
  {
    "name": "Inagawan Sub Elementary School",
    "sdo": "Puerto Princesa City",
    "lat": 9.5462428,
    "lng": 118.6305062,
    "implementationTypes": [],
    "multipleRounds": false
  },
  {
    "name": "Iratag Elementary School",
    "sdo": "Puerto Princesa City",
    "lat": 9.8273494,
    "lng": 118.7016793,
    "implementationTypes": [
      "SCALING - ROUND 3",
      "SCALING - ROUND 4"
    ],
    "multipleRounds": true
  },
  {
    "name": "Iwahig Elementary School",
    "sdo": "Puerto Princesa City",
    "lat": 9.7454446,
    "lng": 118.6593906,
    "implementationTypes": [
      "SCALING - ROUND 3"
    ],
    "multipleRounds": false
  },
  {
    "name": "Kamuning Elementary School",
    "sdo": "Puerto Princesa City",
    "lat": 9.8346132,
    "lng": 118.7387384,
    "implementationTypes": [
      "SCALING - ROUND 3",
      "SCALING - ROUND 4"
    ],
    "multipleRounds": true
  },
  {
    "name": "Kandes Elementary School",
    "sdo": "Puerto Princesa City",
    "lat": 9.8933397,
    "lng": 118.6604648,
    "implementationTypes": [
      "SCALING - ROUND 3",
      "SCALING - ROUND 4"
    ],
    "multipleRounds": true
  },
  {
    "name": "Kayasan Elementary School",
    "sdo": "Puerto Princesa City",
    "lat": 10.1150781,
    "lng": 118.8839726,
    "implementationTypes": [
      "SCALING - ROUND 3"
    ],
    "multipleRounds": false
  },
  {
    "name": "Labtay Elementary School",
    "sdo": "Puerto Princesa City",
    "lat": 9.7032655,
    "lng": 118.4316207,
    "implementationTypes": [
      "SCALING - ROUND 3"
    ],
    "multipleRounds": false
  },
  {
    "name": "Langogan Elementary School",
    "sdo": "Puerto Princesa City",
    "lat": 9.9730499,
    "lng": 118.7875911,
    "implementationTypes": [
      "SCALING - ROUND 3",
      "SCALING - ROUND 4"
    ],
    "multipleRounds": true
  },
  {
    "name": "Lucbuan Elementary School",
    "sdo": "Puerto Princesa City",
    "lat": 9.9924987,
    "lng": 118.8745929,
    "implementationTypes": [
      "SCALING - ROUND 3",
      "SCALING - ROUND 4"
    ],
    "multipleRounds": true
  },
  {
    "name": "Luzviminda Elementary School",
    "sdo": "Puerto Princesa City",
    "lat": 9.6688314,
    "lng": 118.7046837,
    "implementationTypes": [
      "SCALING - ROUND 3",
      "SCALING - ROUND 4"
    ],
    "multipleRounds": true
  },
  {
    "name": "Mabuhay Elementary School",
    "sdo": "Puerto Princesa City",
    "lat": 9.6817499,
    "lng": 118.5499511,
    "implementationTypes": [
      "SCALING - ROUND 3"
    ],
    "multipleRounds": false
  },
  {
    "name": "Macarascas Elementary School",
    "sdo": "Puerto Princesa City",
    "lat": 9.9688381,
    "lng": 118.7943121,
    "implementationTypes": [
      "SCALING - ROUND 3",
      "SCALING - ROUND 4"
    ],
    "multipleRounds": true
  },
  {
    "name": "Makandring Elementary School",
    "sdo": "Puerto Princesa City",
    "lat": 9.8319568,
    "lng": 118.7222475,
    "implementationTypes": [
      "SCALING - ROUND 3",
      "SCALING - ROUND 4"
    ],
    "multipleRounds": true
  },
  {
    "name": "Makirawa Elementary School",
    "sdo": "Puerto Princesa City",
    "lat": 10.1000139,
    "lng": 118.8324293,
    "implementationTypes": [
      "SCALING - ROUND 3"
    ],
    "multipleRounds": false
  },
  {
    "name": "Manalo Elementary school",
    "sdo": "Puerto Princesa City",
    "lat": 9.9632765,
    "lng": 118.8300257,
    "implementationTypes": [
      "SCALING - ROUND 3",
      "SCALING - ROUND 4"
    ],
    "multipleRounds": true
  },
  {
    "name": "Manggapin Elementary School",
    "sdo": "Puerto Princesa City",
    "lat": 9.9691716,
    "lng": 118.7978767,
    "implementationTypes": [
      "SCALING - ROUND 3"
    ],
    "multipleRounds": false
  },
  {
    "name": "Mangingisda West Elementary School",
    "sdo": "Puerto Princesa City",
    "lat": 9.6747928,
    "lng": 118.733147,
    "implementationTypes": [
      "SCALING - ROUND 3",
      "SCALING - ROUND 4"
    ],
    "multipleRounds": true
  },
  {
    "name": "Maoyon Elementary School",
    "sdo": "Puerto Princesa City",
    "lat": 9.9999784,
    "lng": 118.8952513,
    "implementationTypes": [
      "SCALING - ROUND 3",
      "SCALING - ROUND 4"
    ],
    "multipleRounds": true
  },
  {
    "name": "Maranat Elementary School",
    "sdo": "Puerto Princesa City",
    "lat": 9.9240438,
    "lng": 118.6781322,
    "implementationTypes": [
      "SCALING - ROUND 3",
      "SCALING - ROUND 4"
    ],
    "multipleRounds": true
  },
  {
    "name": "Marufinas Elementary School",
    "sdo": "Puerto Princesa City",
    "lat": 9.9723769,
    "lng": 118.791359,
    "implementationTypes": [
      "SCALING - ROUND 3",
      "SCALING - ROUND 4"
    ],
    "multipleRounds": true
  },
  {
    "name": "Matahimik-Bucana Elementary School",
    "sdo": "Puerto Princesa City",
    "lat": 9.7400181,
    "lng": 118.6861158,
    "implementationTypes": [
      "SCALING - ROUND 3"
    ],
    "multipleRounds": false
  },
  {
    "name": "Napsan Elementary School",
    "sdo": "Puerto Princesa City",
    "lat": 9.7262518,
    "lng": 118.445753,
    "implementationTypes": [
      "SCALING - ROUND 3",
      "SCALING - ROUND 4"
    ],
    "multipleRounds": true
  },
  {
    "name": "Nasuduan Elementary School",
    "sdo": "Puerto Princesa City",
    "lat": 10.1144453,
    "lng": 118.8267406,
    "implementationTypes": [
      "SCALING - ROUND 3",
      "SCALING - ROUND 4"
    ],
    "multipleRounds": true
  },
  {
    "name": "NEW PANGGANGAN ELEMENTARY SCHOOL",
    "sdo": "Puerto Princesa City",
    "lat": 10.2726063,
    "lng": 118.9622871,
    "implementationTypes": [
      "SCALING - ROUND 3",
      "SCALING - ROUND 4"
    ],
    "multipleRounds": true
  },
  {
    "name": "Sabang Elementary School",
    "sdo": "Puerto Princesa City",
    "lat": 10.1930682,
    "lng": 118.8929231,
    "implementationTypes": [
      "SCALING - ROUND 3",
      "SCALING - ROUND 4"
    ],
    "multipleRounds": true
  },
  {
    "name": "Salvacion Central Elementary School",
    "sdo": "Puerto Princesa City",
    "lat": 9.9394398,
    "lng": 118.7912664,
    "implementationTypes": [
      "SCALING - ROUND 3",
      "SCALING - ROUND 4"
    ],
    "multipleRounds": true
  },
  {
    "name": "San Carlos Elementary School",
    "sdo": "Puerto Princesa City",
    "lat": 9.896316,
    "lng": 118.7171322,
    "implementationTypes": [
      "SCALING - ROUND 3",
      "SCALING - ROUND 4"
    ],
    "multipleRounds": true
  },
  {
    "name": "San Rafael Elementary School",
    "sdo": "Puerto Princesa City",
    "lat": 9.9874527,
    "lng": 118.9743714,
    "implementationTypes": [
      "SCALING - ROUND 3",
      "SCALING - ROUND 4"
    ],
    "multipleRounds": true
  },
  {
    "name": "Simpokan Elementary School",
    "sdo": "Puerto Princesa City",
    "lat": 9.8090752,
    "lng": 118.5510568,
    "implementationTypes": [
      "SCALING - ROUND 3",
      "SCALING - ROUND 4"
    ],
    "multipleRounds": true
  },
  {
    "name": "Sta. Cruz Elementary School",
    "sdo": "Puerto Princesa City",
    "lat": 9.9399457,
    "lng": 118.7433467,
    "implementationTypes": [
      "SCALING - ROUND 3"
    ],
    "multipleRounds": false
  },
  {
    "name": "Sta. Fe Elementary School",
    "sdo": "Puerto Princesa City",
    "lat": 9.9707302,
    "lng": 118.8573591,
    "implementationTypes": [
      "SCALING - ROUND 3",
      "SCALING - ROUND 4"
    ],
    "multipleRounds": true
  },
  {
    "name": "Sto. Niño Elementary School",
    "sdo": "Puerto Princesa City",
    "lat": 9.7316541,
    "lng": 118.490001,
    "implementationTypes": [
      "SCALING - ROUND 3"
    ],
    "multipleRounds": false
  },
  {
    "name": "Tagabinet Elementary School",
    "sdo": "Puerto Princesa City",
    "lat": 10.0072823,
    "lng": 118.7954386,
    "implementationTypes": [
      "SCALING - ROUND 3",
      "SCALING - ROUND 4"
    ],
    "multipleRounds": true
  },
  {
    "name": "Tagbarungis Elementary School",
    "sdo": "Puerto Princesa City",
    "lat": 10.0010964,
    "lng": 118.8490368,
    "implementationTypes": [
      "SCALING - ROUND 3",
      "SCALING - ROUND 4"
    ],
    "multipleRounds": true
  },
  {
    "name": "Tagnipa Elementary School",
    "sdo": "Puerto Princesa City",
    "lat": 9.978608,
    "lng": 118.7938232,
    "implementationTypes": [
      "SCALING - ROUND 3",
      "SCALING - ROUND 4"
    ],
    "multipleRounds": true
  },
  {
    "name": "Tagumpay Elementary School",
    "sdo": "Puerto Princesa City",
    "lat": 9.5465698,
    "lng": 118.6484988,
    "implementationTypes": [
      "SCALING - ROUND 3",
      "SCALING - ROUND 4"
    ],
    "multipleRounds": true
  },
  {
    "name": "Talaudyong Elementary School",
    "sdo": "Puerto Princesa City",
    "lat": 9.9746524,
    "lng": 118.6674037,
    "implementationTypes": [
      "SCALING - ROUND 3"
    ],
    "multipleRounds": false
  },
  {
    "name": "Tanabag Elementary School",
    "sdo": "Puerto Princesa City",
    "lat": 9.9962483,
    "lng": 118.9888322,
    "implementationTypes": [
      "SCALING - ROUND 3",
      "SCALING - ROUND 4"
    ],
    "multipleRounds": true
  },
  {
    "name": "Alcantara Central Elementary School",
    "sdo": "Romblon",
    "lat": 12.258548526610047,
    "lng": 122.05353332010718,
    "implementationTypes": [
      "SCALING - ROUND 2",
      "SCALING - ROUND 3"
    ],
    "multipleRounds": true
  },
  {
    "name": "Budiong Elementary School",
    "sdo": "Romblon",
    "lat": 12.399437236931735,
    "lng": 121.97457600082703,
    "implementationTypes": [
      "SCALING - ROUND 1",
      "SCALING - ROUND 2",
      "SCALING - ROUND 3",
      "SCALING - ROUND 4"
    ],
    "multipleRounds": true
  },
  {
    "name": "Combot Elementary School",
    "sdo": "Romblon",
    "lat": 12.054171468148597,
    "lng": 121.93866550356064,
    "implementationTypes": [
      "SCALING - ROUND 2",
      "SCALING - ROUND 3"
    ],
    "multipleRounds": true
  },
  {
    "name": "Gobon Elementary School",
    "sdo": "Romblon",
    "lat": 12.810142096490528,
    "lng": 122.06128590727621,
    "implementationTypes": [
      "SCALING - ROUND 1",
      "SCALING - ROUND 2",
      "SCALING - ROUND 3"
    ],
    "multipleRounds": true
  },
  {
    "name": "Ferrol Central Elementary School",
    "sdo": "Romblon",
    "lat": 12.337072232846776,
    "lng": 121.94014199392244,
    "implementationTypes": [
      "Pilot - DepEd Arm"
    ],
    "multipleRounds": false
  },
  {
    "name": "Guinbirayan Elementary School",
    "sdo": "Romblon",
    "lat": 12.17162285262574,
    "lng": 122.0370286525571,
    "implementationTypes": [
      "SCALING - ROUND 2",
      "SCALING - ROUND 3"
    ],
    "multipleRounds": true
  },
  {
    "name": "Mangansag Elementary School",
    "sdo": "Romblon",
    "lat": 12.805707550396376,
    "lng": 122.0345495474567,
    "implementationTypes": [
      "SCALING - ROUND 1",
      "SCALING - ROUND 2",
      "SCALING - ROUND 3"
    ],
    "multipleRounds": true
  },
  {
    "name": "Mat-I Elementary School",
    "sdo": "Romblon",
    "lat": 12.187124008442598,
    "lng": 121.98480396459628,
    "implementationTypes": [
      "SCALING - ROUND 2",
      "SCALING - ROUND 3"
    ],
    "multipleRounds": true
  },
  {
    "name": "Santa Fe Central Elementary School",
    "sdo": "Romblon",
    "lat": 12.15628051005341,
    "lng": 121.99585963652383,
    "implementationTypes": [
      "Pilot - DepEd Arm",
      "SCALING - ROUND 2",
      "SCALING - ROUND 3"
    ],
    "multipleRounds": true
  },
  {
    "name": "Romblon East Central Elementary School",
    "sdo": "Romblon",
    "lat": 12.576811985121552,
    "lng": 122.27274122638049,
    "implementationTypes": [
      "Pilot - DepEd Arm"
    ],
    "multipleRounds": false
  },
  {
    "name": "Tabugon Elementary School",
    "sdo": "Romblon",
    "lat": 12.136687154345475,
    "lng": 122.01785514435983,
    "implementationTypes": [
      "SCALING - ROUND 1",
      "SCALING - ROUND 2",
      "SCALING - ROUND 3"
    ],
    "multipleRounds": true
  },
  {
    "name": "Talamban Elementary School",
    "sdo": "Romblon",
    "lat": 12.39799111931132,
    "lng": 122.07638401213617,
    "implementationTypes": [
      "SCALING - ROUND 2",
      "SCALING - ROUND 3"
    ],
    "multipleRounds": true
  },
  {
    "name": "Azagra Elementary School",
    "sdo": "Romblon",
    "lat": 12.27831388514765,
    "lng": 122.62900989512525,
    "implementationTypes": [
      "SCALING - ROUND 1"
    ],
    "multipleRounds": false
  },
  {
    "name": "Gui-Ob Elementary School",
    "sdo": "Romblon",
    "lat": 12.249588297627415,
    "lng": 122.05361787094716,
    "implementationTypes": [
      "SCALING - ROUND 1"
    ],
    "multipleRounds": false
  },
  {
    "name": "Colong-Colong Elementary School",
    "sdo": "Romblon",
    "lat": 12.81563458405432,
    "lng": 122.06019895475175,
    "implementationTypes": [
      "SCALING - ROUND 1"
    ],
    "multipleRounds": false
  },
  {
    "name": "Felipe Madali Memorial Elementary School",
    "sdo": "Romblon",
    "lat": 12.272792661839876,
    "lng": 122.06152720883144,
    "implementationTypes": [
      "SCALING - ROUND 1"
    ],
    "multipleRounds": false
  },
  {
    "name": "Romblon West Central Elementary School",
    "sdo": "Romblon",
    "lat": 12.575454903853588,
    "lng": 122.2698330046989,
    "implementationTypes": [
      "Pilot - IPA Arm"
    ],
    "multipleRounds": false
  },
  {
    "name": "Cajidiocan Central Elementary School",
    "sdo": "Romblon",
    "lat": 12.368633302564179,
    "lng": 122.6882447419079,
    "implementationTypes": [
      "Pilot - IPA Arm",
      "SCALING - ROUND 3"
    ],
    "multipleRounds": true
  },
  {
    "name": "Looc Central Elementary School",
    "sdo": "Romblon",
    "lat": 12.262924,
    "lng": 121.9958712,
    "implementationTypes": [
      "SCALING - ROUND 3"
    ],
    "multipleRounds": false
  },
  {
    "name": "Odiongan South Central Elementary School",
    "sdo": "Romblon",
    "lat": 12.3973117,
    "lng": 121.9841311,
    "implementationTypes": [
      "SCALING - ROUND 3",
      "SCALING - ROUND 4"
    ],
    "multipleRounds": true
  },
  {
    "name": "San Andres Central Elementary School",
    "sdo": "Romblon",
    "lat": 12.5192708,
    "lng": 122.0105217,
    "implementationTypes": [
      "SCALING - ROUND 3"
    ],
    "multipleRounds": false
  },
  {
    "name": "San Agustin Central Elementary School",
    "sdo": "Romblon",
    "lat": 12.569115,
    "lng": 122.1295954,
    "implementationTypes": [
      "SCALING - ROUND 3"
    ],
    "multipleRounds": false
  },
  {
    "name": "San Jose Central School",
    "sdo": "Romblon",
    "lat": 12.0613868,
    "lng": 121.9583974,
    "implementationTypes": [
      "SCALING - ROUND 3"
    ],
    "multipleRounds": false
  },
  {
    "name": "Mamburao Central School",
    "sdo": "Occidental Mindoro",
    "lat": 13.223625057613967,
    "lng": 120.59484032067154,
    "implementationTypes": [
      "Pilot - DepEd Arm"
    ],
    "multipleRounds": false
  },
  {
    "name": "Caminawit Central School",
    "sdo": "Occidental Mindoro",
    "lat": 12.333422362675384,
    "lng": 121.07954959340934,
    "implementationTypes": [
      "Pilot - DepEd Arm"
    ],
    "multipleRounds": false
  },
  {
    "name": "San Jose Pilot Elementary School",
    "sdo": "Occidental Mindoro",
    "lat": 12.355991669851502,
    "lng": 121.06661847991691,
    "implementationTypes": [
      "Pilot - DepEd Arm"
    ],
    "multipleRounds": false
  },
  {
    "name": "Sablayan Central School",
    "sdo": "Occidental Mindoro",
    "lat": 12.842838503476338,
    "lng": 120.77571692597306,
    "implementationTypes": [
      "Pilot - IPA Arm"
    ],
    "multipleRounds": false
  },
  {
    "name": "Pag-Asa Central School",
    "sdo": "Occidental Mindoro",
    "lat": 12.344269704539265,
    "lng": 121.06541388190172,
    "implementationTypes": [
      "Pilot - IPA Arm"
    ],
    "multipleRounds": false
  },
  {
    "name": "Abongan Elementary School",
    "sdo": "Palawan",
    "lat": 10.679211372727137,
    "lng": 119.4527398193332,
    "implementationTypes": [
      "Pilot - DepEd Arm"
    ],
    "multipleRounds": false
  },
  {
    "name": "Decalachao Elementary School",
    "sdo": "Palawan",
    "lat": 12.153048383610885,
    "lng": 120.08335879340484,
    "implementationTypes": [
      "Pilot - DepEd Arm"
    ],
    "multipleRounds": false
  },
  {
    "name": "Manamoc Elementary School",
    "sdo": "Palawan",
    "lat": 11.3072204189701,
    "lng": 120.67289169740494,
    "implementationTypes": [
      "Pilot - IPA Arm"
    ],
    "multipleRounds": false
  },
  {
    "name": "Narra Pilot School",
    "sdo": "Palawan",
    "lat": 9.271036355080644,
    "lng": 118.40326689149326,
    "implementationTypes": [
      "Pilot - IPA Arm"
    ],
    "multipleRounds": false
  },
  {
    "name": "Cuyo Central School",
    "sdo": "Palawan",
    "lat": 10.855913631305787,
    "lng": 121.00906670686803,
    "implementationTypes": [
      "Pilot - IPA Arm"
    ],
    "multipleRounds": false
  },
  {
    "name": "Narra-Narra Elementary School",
    "sdo": "Palawan",
    "lat": 8.646855884010217,
    "lng": 117.48526901332772,
    "implementationTypes": [
      "Pilot - IPA Arm"
    ],
    "multipleRounds": false
  },
  {
    "name": "Banadero Elementary School",
    "sdo": "Albay",
    "lat": 13.18382114664651,
    "lng": 123.7050218512146,
    "implementationTypes": [
      "SCALING - ROUND 3"
    ],
    "multipleRounds": false
  },
  {
    "name": "Daraga North Central School",
    "sdo": "Albay",
    "lat": 13.14422304673421,
    "lng": 123.71594705491891,
    "implementationTypes": [
      "SCALING - ROUND 3",
      "SCALING - ROUND 4"
    ],
    "multipleRounds": true
  },
  {
    "name": "Sugcad Elementary School",
    "sdo": "Albay",
    "lat": 13.402391201185038,
    "lng": 123.67917166139141,
    "implementationTypes": [
      "SCALING - ROUND 3",
      "SCALING - ROUND 4"
    ],
    "multipleRounds": true
  },
  {
    "name": "Maysua Elementary School",
    "sdo": "Albay",
    "lat": 13.348974017121483,
    "lng": 123.55465069539581,
    "implementationTypes": [
      "SCALING - ROUND 3",
      "SCALING - ROUND 4"
    ],
    "multipleRounds": true
  },
  {
    "name": "San Andres Elementary School",
    "sdo": "Albay",
    "lat": 13.260465986519637,
    "lng": 123.77775261903079,
    "implementationTypes": [
      "SCALING - ROUND 3",
      "SCALING - ROUND 4"
    ],
    "multipleRounds": true
  },
  {
    "name": "Tiwi Central School",
    "sdo": "Albay",
    "lat": 13.45335190214259,
    "lng": 123.67995790043803,
    "implementationTypes": [
      "SCALING - ROUND 3",
      "SCALING - ROUND 4"
    ],
    "multipleRounds": true
  },
  {
    "name": "Alianza Elementary School",
    "sdo": "Bago City",
    "lat": 10.473160831862423,
    "lng": 122.92987415439626,
    "implementationTypes": [
      "Pilot - DepEd Arm"
    ],
    "multipleRounds": false
  },
  {
    "name": "J.L. Araneta Elementary School",
    "sdo": "Bago City",
    "lat": 10.586286567297687,
    "lng": 122.90837434998197,
    "implementationTypes": [
      "Pilot - DepEd Arm"
    ],
    "multipleRounds": false
  },
  {
    "name": "M. L. Araneta Elementary School",
    "sdo": "Bago City",
    "lat": 10.536938020872794,
    "lng": 122.8887309933681,
    "implementationTypes": [
      "Pilot - DepEd Arm"
    ],
    "multipleRounds": false
  },
  {
    "name": "Ma-Ao Elementary School",
    "sdo": "Bago City",
    "lat": 10.489613456798354,
    "lng": 122.98906693262835,
    "implementationTypes": [
      "Pilot - DepEd Arm"
    ],
    "multipleRounds": false
  },
  {
    "name": "Sagasa Elementary School",
    "sdo": "Bago City",
    "lat": 10.468768109577358,
    "lng": 122.893292237479,
    "implementationTypes": [
      "Pilot - DepEd Arm"
    ],
    "multipleRounds": false
  },
  {
    "name": "Buenavista Central School",
    "sdo": "Guimaras",
    "lat": 10.698612247105974,
    "lng": 122.6476761222072,
    "implementationTypes": [
      "Pilot - DepEd Arm"
    ],
    "multipleRounds": false
  },
  {
    "name": "Constancia Elementary School",
    "sdo": "Guimaras",
    "lat": 10.65002154993128,
    "lng": 122.7175000956397,
    "implementationTypes": [
      "Pilot - DepEd Arm"
    ],
    "multipleRounds": false
  },
  {
    "name": "Doña Lucia C.Locsin Memorial School",
    "sdo": "Guimaras",
    "lat": 10.590142732990127,
    "lng": 122.69828122942246,
    "implementationTypes": [
      "Pilot - DepEd Arm"
    ],
    "multipleRounds": false
  },
  {
    "name": "Jordan Central School School",
    "sdo": "Guimaras",
    "lat": 10.655836989864872,
    "lng": 122.59204280327633,
    "implementationTypes": [
      "Pilot - DepEd Arm"
    ],
    "multipleRounds": false
  },
  {
    "name": "Old Poblacion Elementary School",
    "sdo": "Guimaras",
    "lat": 10.684985632275101,
    "lng": 122.62404563037798,
    "implementationTypes": [
      "Pilot - DepEd Arm"
    ],
    "multipleRounds": false
  },
  {
    "name": "Sta. Teresa Elementary School",
    "sdo": "Guimaras",
    "lat": 10.58868450023511,
    "lng": 122.55766634548897,
    "implementationTypes": [
      "Pilot - DepEd Arm"
    ],
    "multipleRounds": false
  },
  {
    "name": "Salvacion Central School",
    "sdo": "Guimaras",
    "lat": 10.444275518148318,
    "lng": 122.53285358106658,
    "implementationTypes": [
      "Pilot - DepEd Arm"
    ],
    "multipleRounds": false
  },
  {
    "name": "Pavia Pilot Elementary School",
    "sdo": "Iloilo",
    "lat": 10.778143308066799,
    "lng": 122.5394234203594,
    "implementationTypes": [
      "Pilot - DepEd Arm"
    ],
    "multipleRounds": false
  },
  {
    "name": "Cabatuan Central Elementary School",
    "sdo": "Iloilo",
    "lat": 10.878805013503877,
    "lng": 122.48570190501906,
    "implementationTypes": [
      "Pilot - DepEd Arm"
    ],
    "multipleRounds": false
  },
  {
    "name": "Tigbauan Central Elementary School",
    "sdo": "Iloilo",
    "lat": 10.673255092018948,
    "lng": 122.37486449337099,
    "implementationTypes": [
      "Pilot - DepEd Arm"
    ],
    "multipleRounds": false
  },
  {
    "name": "Iloilo Elementary School",
    "sdo": "Iloilo",
    "lat": 10.700962491384663,
    "lng": 122.56533308309976,
    "implementationTypes": [
      "Pilot - IPA Arm"
    ],
    "multipleRounds": false
  },
  {
    "name": "Barotac Nuevo Central Elementary School",
    "sdo": "Iloilo",
    "lat": 10.891075516368293,
    "lng": 122.70588353570442,
    "implementationTypes": [
      "Pilot - IPA Arm"
    ],
    "multipleRounds": false
  },
  {
    "name": "Santa Barbara Central Elementary School",
    "sdo": "Iloilo",
    "lat": 10.823283655203264,
    "lng": 122.53118127803165,
    "implementationTypes": [
      "Pilot - IPA Arm"
    ],
    "multipleRounds": false
  },
  {
    "name": "Delegate Angel Salazar Jr. Memorial School",
    "sdo": "Antique",
    "lat": 10.743589372461985,
    "lng": 121.94296636638639,
    "implementationTypes": [
      "Pilot - IPA Arm"
    ],
    "multipleRounds": false
  },
  {
    "name": "Atabay Elementary School",
    "sdo": "Antique",
    "lat": 10.529613168476274,
    "lng": 121.94861106562198,
    "implementationTypes": [
      "Pilot - IPA Arm"
    ],
    "multipleRounds": false
  },
  {
    "name": "Hamtic Central School",
    "sdo": "Antique",
    "lat": 10.7014679472026,
    "lng": 121.97910373570029,
    "implementationTypes": [
      "Pilot - IPA Arm"
    ],
    "multipleRounds": false
  },
  {
    "name": "Talisay South Elementary School",
    "sdo": "Negros Occidental",
    "lat": 10.73719961577045,
    "lng": 122.9656020424884,
    "implementationTypes": [
      "Pilot - DepEd Arm"
    ],
    "multipleRounds": false
  },
  {
    "name": "Tabao Elementary School",
    "sdo": "Negros Occidental",
    "lat": 10.445054790054666,
    "lng": 122.82625587172703,
    "implementationTypes": [
      "Pilot - IPA Arm"
    ],
    "multipleRounds": false
  },
  {
    "name": "Smile Village Elem. School",
    "sdo": "Negros Occidental",
    "lat": 10.620419250459028,
    "lng": 123.0643736889681,
    "implementationTypes": [
      "Pilot - IPA Arm"
    ],
    "multipleRounds": false
  },
  {
    "name": "Pulupandan Elem. School",
    "sdo": "Negros Occidental",
    "lat": 10.521004853900342,
    "lng": 122.80035016534444,
    "implementationTypes": [
      "Pilot - IPA Arm"
    ],
    "multipleRounds": false
  },
  {
    "name": "San Enrique Elementary School",
    "sdo": "Negros Occidental",
    "lat": 10.626892965379605,
    "lng": 122.68225181923765,
    "implementationTypes": [
      "Pilot - IPA Arm"
    ],
    "multipleRounds": false
  },
  {
    "name": "Ajibon Elementary School",
    "sdo": "Isabela City",
    "lat": 6.429709623038934,
    "lng": 121.98700406485895,
    "implementationTypes": [
      "SCALING - ROUND 1",
      "SCALING - ROUND 2"
    ],
    "multipleRounds": true
  },
  {
    "name": "Begang Central Elementary School",
    "sdo": "Isabela City",
    "lat": 6.688138154619352,
    "lng": 122.01806697442858,
    "implementationTypes": [
      "Pilot - DepEd Arm",
      "SCALING - ROUND 1",
      "SCALING - ROUND 2"
    ],
    "multipleRounds": true
  },
  {
    "name": "Busay Elementary School",
    "sdo": "Isabela City",
    "lat": 6.691452612625053,
    "lng": 122.00438443599225,
    "implementationTypes": [
      "Pilot - DepEd Arm",
      "SCALING - ROUND 3",
      "SCALING - ROUND 4"
    ],
    "multipleRounds": true
  },
  {
    "name": "Cabunbata Elementary School",
    "sdo": "Isabela City",
    "lat": 6.6802882616331765,
    "lng": 121.96483061938252,
    "implementationTypes": [
      "SCALING - ROUND 1",
      "SCALING - ROUND 2",
      "SCALING - ROUND 3",
      "SCALING - ROUND 4"
    ],
    "multipleRounds": true
  },
  {
    "name": "Isabela Bliss Elementary School",
    "sdo": "Isabela City",
    "lat": 6.69889069995228,
    "lng": 121.97543250450711,
    "implementationTypes": [
      "SCALING - ROUND 1",
      "SCALING - ROUND 2",
      "SCALING - ROUND 3",
      "SCALING - ROUND 4"
    ],
    "multipleRounds": true
  },
  {
    "name": "Geras Integrated School",
    "sdo": "Isabela City",
    "lat": 6.695277661345855,
    "lng": 121.9624073071904,
    "implementationTypes": [
      "Pilot - DepEd Arm"
    ],
    "multipleRounds": false
  },
  {
    "name": "Tabiawan Elementary School",
    "sdo": "Isabela City",
    "lat": 6.71044837227846,
    "lng": 122.00334966621115,
    "implementationTypes": [
      "SCALING - ROUND 1",
      "SCALING - ROUND 2"
    ],
    "multipleRounds": true
  },
  {
    "name": "Diki Elementary School",
    "sdo": "Isabela City",
    "lat": 6.712878080284244,
    "lng": 121.97026453787338,
    "implementationTypes": [
      "Pilot - DepEd Arm",
      "SCALING - ROUND 1",
      "SCALING - ROUND 3",
      "SCALING - ROUND 4"
    ],
    "multipleRounds": true
  },
  {
    "name": "West Side Elementary School",
    "sdo": "Isabela City",
    "lat": 6.701865885074527,
    "lng": 121.97020706683428,
    "implementationTypes": [
      "SCALING - ROUND 1"
    ],
    "multipleRounds": false
  },
  {
    "name": "Badjao Floating Integrated School",
    "sdo": "Isabela City",
    "lat": 6.71098424360465,
    "lng": 121.9652630932399,
    "implementationTypes": [
      "SCALING - ROUND 3",
      "SCALING - ROUND 4"
    ],
    "multipleRounds": true
  },
  {
    "name": "Bishop Querexeta Elementary School",
    "sdo": "Isabela City",
    "lat": 6.700898552139514,
    "lng": 121.98368018634274,
    "implementationTypes": [
      "Pilot - DepEd Arm"
    ],
    "multipleRounds": false
  },
  {
    "name": "Menzi Elementary School",
    "sdo": "Isabela City",
    "lat": 6.692391362104693,
    "lng": 121.96996842253184,
    "implementationTypes": [
      "SCALING - ROUND 1",
      "SCALING - ROUND 2"
    ],
    "multipleRounds": true
  },
  {
    "name": "Tampalan Elementary School",
    "sdo": "Isabela City",
    "lat": 6.711225420019407,
    "lng": 121.9687783439648,
    "implementationTypes": [
      "SCALING - ROUND 1",
      "SCALING - ROUND 2",
      "SCALING - ROUND 3",
      "SCALING - ROUND 4"
    ],
    "multipleRounds": true
  },
  {
    "name": "Isabela East Central Elementary School",
    "sdo": "Isabela City",
    "lat": 6.708051034222672,
    "lng": 121.97821820554876,
    "implementationTypes": [
      "Pilot - DepEd Arm",
      "SCALING - ROUND 1",
      "SCALING - ROUND 3",
      "SCALING - ROUND 4"
    ],
    "multipleRounds": true
  },
  {
    "name": "Isabela Central Elementary Pilot School",
    "sdo": "Isabela City",
    "lat": 6.701757115414394,
    "lng": 121.96951685136713,
    "implementationTypes": [
      "Pilot - DepEd Arm"
    ],
    "multipleRounds": false
  },
  {
    "name": "Kaumpurnah Elementary School",
    "sdo": "Isabela City",
    "lat": 6.316675646467213,
    "lng": 121.92912412342122,
    "implementationTypes": [
      "SCALING - ROUND 3",
      "SCALING - ROUND 4"
    ],
    "multipleRounds": true
  },
  {
    "name": "Kumalarang Elementary School",
    "sdo": "Isabela City",
    "lat": 6.671013606801021,
    "lng": 121.93692692489962,
    "implementationTypes": [],
    "multipleRounds": false
  },
  {
    "name": "Lampinigan Elementary School",
    "sdo": "Isabela City",
    "lat": 6.690093360662525,
    "lng": 121.88320896486103,
    "implementationTypes": [
      "SCALING - ROUND 3"
    ],
    "multipleRounds": false
  },
  {
    "name": "Lukbuton Elementary School",
    "sdo": "Isabela City",
    "lat": 6.734449829631644,
    "lng": 121.95083580481035,
    "implementationTypes": [],
    "multipleRounds": false
  },
  {
    "name": "M.S. Bernardo Elementary School",
    "sdo": "Isabela City",
    "lat": 6.716167165491574,
    "lng": 121.97278670066461,
    "implementationTypes": [
      "SCALING - ROUND 3",
      "SCALING - ROUND 4"
    ],
    "multipleRounds": true
  },
  {
    "name": "Malamawi Central Elementary School",
    "sdo": "Isabela City",
    "lat": 6.7154127093073726,
    "lng": 121.96798460486303,
    "implementationTypes": [
      "SCALING - ROUND 3",
      "SCALING - ROUND 4"
    ],
    "multipleRounds": true
  },
  {
    "name": "Nr Hugo Elementary School",
    "sdo": "Isabela City",
    "lat": 6.62285408372456,
    "lng": 121.93545326662885,
    "implementationTypes": [],
    "multipleRounds": false
  },
  {
    "name": "Panigayan Integrated School (Panigayan Elementary School)",
    "sdo": "Isabela City",
    "lat": 6.709979454990735,
    "lng": 121.94514568392957,
    "implementationTypes": [
      "SCALING - ROUND 3",
      "SCALING - ROUND 4"
    ],
    "multipleRounds": true
  },
  {
    "name": "Simeon & Josefa Obsequio Elementary School",
    "sdo": "Isabela City",
    "lat": 6.707848463374915,
    "lng": 121.98193069914758,
    "implementationTypes": [
      "SCALING - ROUND 3"
    ],
    "multipleRounds": false
  },
  {
    "name": "Sumagdang Elementary School",
    "sdo": "Isabela City",
    "lat": 6.685284316868735,
    "lng": 121.95629733233088,
    "implementationTypes": [
      "SCALING - ROUND 3",
      "SCALING - ROUND 4"
    ],
    "multipleRounds": true
  },
  {
    "name": "Sunset Elementary School",
    "sdo": "Isabela City",
    "lat": 6.7029755689059165,
    "lng": 121.96374869142774,
    "implementationTypes": [
      "SCALING - ROUND 4"
    ],
    "multipleRounds": false
  },
  {
    "name": "Catalina Vda De Jalon Memorial School",
    "sdo": "Zamboanga City",
    "lat": 6.936176815763888,
    "lng": 122.07947000962456,
    "implementationTypes": [
      "Pilot - IPA Arm"
    ],
    "multipleRounds": false
  },
  {
    "name": "Putik Central School Sped Center",
    "sdo": "Zamboanga City",
    "lat": 6.938121700444297,
    "lng": 122.09336663115506,
    "implementationTypes": [
      "Pilot - IPA Arm"
    ],
    "multipleRounds": false
  },
  {
    "name": "San Jose Gusu Elementary School",
    "sdo": "Zamboanga City",
    "lat": 6.920042834272447,
    "lng": 122.05259852029046,
    "implementationTypes": [
      "Pilot - IPA Arm"
    ],
    "multipleRounds": false
  },
  {
    "name": "Labuan Central School",
    "sdo": "Zamboanga City",
    "lat": 7.089961452077506,
    "lng": 121.9023230886566,
    "implementationTypes": [
      "Pilot - IPA Arm"
    ],
    "multipleRounds": false
  },
  {
    "name": "Zambowood Elementary School",
    "sdo": "Zamboanga City",
    "lat": 6.941588960154608,
    "lng": 122.13262567693359,
    "implementationTypes": [
      "Pilot - IPA Arm"
    ],
    "multipleRounds": false
  },
  {
    "name": "Pinan Central Elementary School",
    "sdo": "Zamboanga Del Norte",
    "lat": 8.48004346080969,
    "lng": 123.4481361491504,
    "implementationTypes": [
      "Pilot - IPA Arm"
    ],
    "multipleRounds": false
  },
  {
    "name": "Salug Central School And Sped Center__",
    "sdo": "Zamboanga Del Norte",
    "lat": 8.109801287811491,
    "lng": 122.75739405101558,
    "implementationTypes": [
      "Pilot - IPA Arm"
    ],
    "multipleRounds": false
  },
  {
    "name": "Katipunan Central School",
    "sdo": "Zamboanga Del Norte",
    "lat": 8.511406940980555,
    "lng": 123.28158839332906,
    "implementationTypes": [
      "Pilot - IPA Arm"
    ],
    "multipleRounds": false
  },
  {
    "name": "Labason Central School",
    "sdo": "Zamboanga Del Norte",
    "lat": 8.066392028083728,
    "lng": 122.52445796448609,
    "implementationTypes": [
      "Pilot - IPA Arm"
    ],
    "multipleRounds": false
  },
  {
    "name": "Sindangan Pilot Demonstration School",
    "sdo": "Zamboanga Del Norte",
    "lat": 8.234681664674602,
    "lng": 122.999751277982,
    "implementationTypes": [
      "Pilot - IPA Arm"
    ],
    "multipleRounds": false
  },
  {
    "name": "Aurora Rps",
    "sdo": "Zamboanga Del Sur",
    "lat": 7.9473315769133785,
    "lng": 123.58521630057501,
    "implementationTypes": [
      "Pilot - DepEd Arm"
    ],
    "multipleRounds": false
  },
  {
    "name": "Blancia Central ES",
    "sdo": "Zamboanga Del Sur",
    "lat": 8.083333803951088,
    "lng": 123.48333168927277,
    "implementationTypes": [
      "Pilot - DepEd Arm"
    ],
    "multipleRounds": false
  },
  {
    "name": "Midsalip Central ES",
    "sdo": "Zamboanga Del Sur",
    "lat": 8.03193477992208,
    "lng": 123.31743440297232,
    "implementationTypes": [
      "Pilot - DepEd Arm"
    ],
    "multipleRounds": false
  },
  {
    "name": "Ramon Magsaysay Central ES",
    "sdo": "Zamboanga Del Sur",
    "lat": 8.009400130650677,
    "lng": 123.48501001279126,
    "implementationTypes": [
      "Pilot - DepEd Arm"
    ],
    "multipleRounds": false
  },
  {
    "name": "Tawagan ES",
    "sdo": "Zamboanga Del Sur",
    "lat": 7.873613177238094,
    "lng": 123.48057363268157,
    "implementationTypes": [
      "Pilot - DepEd Arm"
    ],
    "multipleRounds": false
  },
  {
    "name": "Tigbao Central ES",
    "sdo": "Zamboanga Del Sur",
    "lat": 7.820282611820155,
    "lng": 123.22619542215341,
    "implementationTypes": [
      "Pilot - DepEd Arm"
    ],
    "multipleRounds": false
  },
  {
    "name": "Balagon Integrated School",
    "sdo": "Zamboanga Sibugay",
    "lat": 7.768108918228541,
    "lng": 122.92664740364063,
    "implementationTypes": [
      "SCALING - SUMMER 2025"
    ],
    "multipleRounds": false
  },
  {
    "name": "Balian Integrated School",
    "sdo": "Zamboanga Sibugay",
    "lat": 7.55447677538337,
    "lng": 122.84240617772325,
    "implementationTypes": [
      "SCALING - SUMMER 2025"
    ],
    "multipleRounds": false
  },
  {
    "name": "Bangco Integrated School",
    "sdo": "Zamboanga Sibugay",
    "lat": 7.8624469751265105,
    "lng": 122.48500641312226,
    "implementationTypes": [
      "SCALING - SUMMER 2025"
    ],
    "multipleRounds": false
  },
  {
    "name": "Bangkaw-Bangkaw Elemementary School",
    "sdo": "Zamboanga Sibugay",
    "lat": 7.781077456631582,
    "lng": 122.72560548500229,
    "implementationTypes": [
      "SCALING - SUMMER 2025"
    ],
    "multipleRounds": false
  },
  {
    "name": "Buhangin Mahaba Elemementary School",
    "sdo": "Zamboanga Sibugay",
    "lat": 7.285439980940961,
    "lng": 122.82332789386807,
    "implementationTypes": [
      "SCALING - SUMMER 2025"
    ],
    "multipleRounds": false
  },
  {
    "name": "Datu Tumanggong Elemementary School",
    "sdo": "Zamboanga Sibugay",
    "lat": 7.500218304025953,
    "lng": 122.36666706701088,
    "implementationTypes": [
      "SCALING - SUMMER 2025"
    ],
    "multipleRounds": false
  },
  {
    "name": "Habib Ibrahim Memorial Elementary School",
    "sdo": "Zamboanga Sibugay",
    "lat": 7.701274924824379,
    "lng": 122.50617859374289,
    "implementationTypes": [
      "SCALING - SUMMER 2025"
    ],
    "multipleRounds": false
  },
  {
    "name": "Habib Moin Anduhol Memorial Elementary School",
    "sdo": "Zamboanga Sibugay",
    "lat": 7.761494225358703,
    "lng": 122.58496224065732,
    "implementationTypes": [
      "SCALING - SUMMER 2025",
      "SCALING - ROUND 3"
    ],
    "multipleRounds": true
  },
  {
    "name": "Buug Pilot Central Elemementary School",
    "sdo": "Zamboanga Sibugay",
    "lat": 7.726956495183117,
    "lng": 123.06260297908223,
    "implementationTypes": [
      "SCALING - SUMMER 2025"
    ],
    "multipleRounds": false
  },
  {
    "name": "Mali Little Baguio Elemementary School",
    "sdo": "Zamboanga Sibugay",
    "lat": 7.6171679699192625,
    "lng": 122.94971461765248,
    "implementationTypes": [
      "SCALING - SUMMER 2025"
    ],
    "multipleRounds": false
  },
  {
    "name": "Natalia R. Changco Elemementary School",
    "sdo": "Zamboanga Sibugay",
    "lat": 7.846359,
    "lng": 122.678575,
    "implementationTypes": [
      "SCALING - SUMMER 2025"
    ],
    "multipleRounds": false
  },
  {
    "name": "PNOC Village Elementary School",
    "sdo": "Zamboanga Sibugay",
    "lat": 7.67986294854856,
    "lng": 122.99283708815962,
    "implementationTypes": [
      "SCALING - SUMMER 2025"
    ],
    "multipleRounds": false
  },
  {
    "name": "Ponciano Pagdanganan Elemementary School",
    "sdo": "Zamboanga Sibugay",
    "lat": 7.626047,
    "lng": 122.451433,
    "implementationTypes": [
      "SCALING - SUMMER 2025"
    ],
    "multipleRounds": false
  },
  {
    "name": "Pulawan ElementarySchool",
    "sdo": "Zamboanga Sibugay",
    "lat": 7.652538041348781,
    "lng": 122.9479038503711,
    "implementationTypes": [
      "SCALING - SUMMER 2025"
    ],
    "multipleRounds": false
  },
  {
    "name": "Salih H. Musa Tandiong - Muslim Elemementary School",
    "sdo": "Zamboanga Sibugay",
    "lat": 7.461509681101912,
    "lng": 122.98602584208885,
    "implementationTypes": [
      "SCALING - SUMMER 2025"
    ],
    "multipleRounds": false
  },
  {
    "name": "Salinding Elementary School",
    "sdo": "Zamboanga Sibugay",
    "lat": 7.677926182854399,
    "lng": 122.85487020355244,
    "implementationTypes": [
      "SCALING - SUMMER 2025",
      "SCALING - ROUND 3"
    ],
    "multipleRounds": true
  },
  {
    "name": "Sta. Cruz Primary School",
    "sdo": "Zamboanga Sibugay",
    "lat": 7.821766237087918,
    "lng": 122.81679863902086,
    "implementationTypes": [
      "SCALING - SUMMER 2025"
    ],
    "multipleRounds": false
  },
  {
    "name": "Tiayon Integrated School",
    "sdo": "Zamboanga Sibugay",
    "lat": 7.766820474899035,
    "lng": 122.55538198427973,
    "implementationTypes": [
      "SCALING - SUMMER 2025"
    ],
    "multipleRounds": false
  },
  {
    "name": "San Jose Elementary School",
    "sdo": "Zamboanga Sibugay",
    "lat": 7.649492965377054,
    "lng": 122.92928849137361,
    "implementationTypes": [
      "SCALING - SUMMER 2025",
      "SCALING - ROUND 3"
    ],
    "multipleRounds": true
  },
  {
    "name": "Alicia Central Elementary School",
    "sdo": "Zamboanga Sibugay",
    "lat": 7.524197570223999,
    "lng": 122.96629893318992,
    "implementationTypes": [
      "SCALING - ROUND 2",
      "SCALING - SUMMER 2025",
      "SCALING - ROUND 3",
      "SCALING - ROUND 4"
    ],
    "multipleRounds": true
  },
  {
    "name": "Calades Elementary School",
    "sdo": "Zamboanga Sibugay",
    "lat": 7.534633856779984,
    "lng": 122.94379625917566,
    "implementationTypes": [
      "SCALING - ROUND 1",
      "SCALING - ROUND 2",
      "SCALING - SUMMER 2025",
      "SCALING - ROUND 3",
      "SCALING - ROUND 4"
    ],
    "multipleRounds": true
  },
  {
    "name": "Lambuyogan Elementary School",
    "sdo": "Zamboanga Sibugay",
    "lat": 7.576372235067982,
    "lng": 122.92972508433687,
    "implementationTypes": [
      "SCALING - SUMMER 2025",
      "SCALING - ROUND 3",
      "SCALING - ROUND 4"
    ],
    "multipleRounds": true
  },
  {
    "name": "Lapirawan Elementary School",
    "sdo": "Zamboanga Sibugay",
    "lat": 7.529082561100174,
    "lng": 123.00761390668028,
    "implementationTypes": [
      "SCALING - SUMMER 2025"
    ],
    "multipleRounds": false
  },
  {
    "name": "Dawa-Dawa Elementary School",
    "sdo": "Zamboanga Sibugay",
    "lat": 7.470630787244105,
    "lng": 122.85156926738463,
    "implementationTypes": [
      "SCALING - ROUND 3",
      "SCALING - ROUND 4"
    ],
    "multipleRounds": true
  },
  {
    "name": "Tampalan Elementary School",
    "sdo": "Zamboanga Sibugay",
    "lat": 7.443937835086758,
    "lng": 122.81700859152694,
    "implementationTypes": [
      "SCALING - ROUND 3",
      "SCALING - ROUND 4"
    ],
    "multipleRounds": true
  },
  {
    "name": "Gulayon Elementary School",
    "sdo": "Zamboanga Sibugay",
    "lat": 7.5169989,
    "lng": 122.8664592,
    "implementationTypes": [
      "SCALING - ROUND 3"
    ],
    "multipleRounds": false
  },
  {
    "name": "Alegria Elementary School",
    "sdo": "Zamboanga Sibugay",
    "lat": 7.508967520596145,
    "lng": 122.94167123386039,
    "implementationTypes": [
      "SCALING - ROUND 3",
      "SCALING - ROUND 4"
    ],
    "multipleRounds": true
  },
  {
    "name": "Timbang-Timbang Elementary School",
    "sdo": "Zamboanga Sibugay",
    "lat": 7.541541145249496,
    "lng": 122.9269017215807,
    "implementationTypes": [
      "SCALING - SUMMER 2025",
      "SCALING - ROUND 3"
    ],
    "multipleRounds": true
  },
  {
    "name": "Bliss Elementary School",
    "sdo": "Zamboanga Sibugay",
    "lat": 7.737127147139231,
    "lng": 123.05694244625134,
    "implementationTypes": [
      "SCALING - ROUND 2",
      "SCALING - SUMMER 2025"
    ],
    "multipleRounds": true
  },
  {
    "name": "Buug Central SPED Center",
    "sdo": "Zamboanga Sibugay",
    "lat": 7.726826312263751,
    "lng": 123.06320070719994,
    "implementationTypes": [
      "SCALING - ROUND 2",
      "SCALING - ROUND 3",
      "SCALING - ROUND 4"
    ],
    "multipleRounds": true
  },
  {
    "name": "Del Monte Elementary School",
    "sdo": "Zamboanga Sibugay",
    "lat": 7.72552004817997,
    "lng": 123.00717160621541,
    "implementationTypes": [
      "SCALING - SUMMER 2025",
      "SCALING - ROUND 3",
      "SCALING - ROUND 4"
    ],
    "multipleRounds": true
  },
  {
    "name": "Manlin Elementary School",
    "sdo": "Zamboanga Sibugay",
    "lat": 7.716742146297254,
    "lng": 123.07461329086814,
    "implementationTypes": [
      "SCALING - SUMMER 2025",
      "SCALING - ROUND 3",
      "SCALING - ROUND 4"
    ],
    "multipleRounds": true
  },
  {
    "name": "Muyo Elementary School",
    "sdo": "Zamboanga Sibugay",
    "lat": 7.750323682308957,
    "lng": 123.02506398105373,
    "implementationTypes": [
      "SCALING - SUMMER 2025",
      "SCALING - ROUND 3",
      "SCALING - ROUND 4"
    ],
    "multipleRounds": true
  },
  {
    "name": "Maganay Elementary School",
    "sdo": "Zamboanga Sibugay",
    "lat": 7.7313189,
    "lng": 123.0865123,
    "implementationTypes": [
      "SCALING - SUMMER 2025",
      "SCALING - ROUND 3",
      "SCALING - ROUND 4"
    ],
    "multipleRounds": true
  },
  {
    "name": "Buug Pilot Central Elementary School",
    "sdo": "Zamboanga Sibugay",
    "lat": 7.72706,
    "lng": 123.0633716,
    "implementationTypes": [
      "SCALING - SUMMER 2025",
      "SCALING - ROUND 3",
      "SCALING - ROUND 4"
    ],
    "multipleRounds": true
  },
  {
    "name": "Pling Elementary School",
    "sdo": "Zamboanga Sibugay",
    "lat": 7.7335132,
    "lng": 123.066778,
    "implementationTypes": [
      "SCALING - SUMMER 2025",
      "SCALING - ROUND 3",
      "SCALING - ROUND 4"
    ],
    "multipleRounds": true
  },
  {
    "name": "Labrador Elementary School",
    "sdo": "Zamboanga Sibugay",
    "lat": 7.7566947,
    "lng": 123.04261,
    "implementationTypes": [
      "SCALING - SUMMER 2025",
      "SCALING - ROUND 3",
      "SCALING - ROUND 4"
    ],
    "multipleRounds": true
  },
  {
    "name": "Villacastor Elementary School",
    "sdo": "Zamboanga Sibugay",
    "lat": 7.7314358,
    "lng": 123.0865606,
    "implementationTypes": [
      "SCALING - SUMMER 2025",
      "SCALING - ROUND 4"
    ],
    "multipleRounds": true
  },
  {
    "name": "Pamintayan Elementary School",
    "sdo": "Zamboanga Sibugay",
    "lat": 7.686726,
    "lng": 123.081261,
    "implementationTypes": [
      "SCALING - SUMMER 2025"
    ],
    "multipleRounds": false
  },
  {
    "name": "Diplahan Central Elementary School",
    "sdo": "Zamboanga Sibugay",
    "lat": 7.6891296886640905,
    "lng": 122.9843725862235,
    "implementationTypes": [
      "Pilot - DepEd Arm",
      "SCALING - ROUND 2",
      "SCALING - ROUND 3"
    ],
    "multipleRounds": true
  },
  {
    "name": "Ditay Elementary School",
    "sdo": "Zamboanga Sibugay",
    "lat": 7.811219509366668,
    "lng": 122.94902730720098,
    "implementationTypes": [
      "SCALING - ROUND 2",
      "SCALING - SUMMER 2025",
      "SCALING - ROUND 3"
    ],
    "multipleRounds": true
  },
  {
    "name": "Gaulan Elementary School",
    "sdo": "Zamboanga Sibugay",
    "lat": 7.767223647205906,
    "lng": 122.98488115476022,
    "implementationTypes": [
      "SCALING - SUMMER 2025",
      "SCALING - ROUND 3"
    ],
    "multipleRounds": true
  },
  {
    "name": "Guinoman Elementary School",
    "sdo": "Zamboanga Sibugay",
    "lat": 7.834256577043372,
    "lng": 122.95190761054815,
    "implementationTypes": [
      "SCALING - SUMMER 2025",
      "SCALING - ROUND 3",
      "SCALING - ROUND 4"
    ],
    "multipleRounds": true
  },
  {
    "name": "Manangon Elementary School",
    "sdo": "Zamboanga Sibugay",
    "lat": 7.739354664703721,
    "lng": 122.97437080379107,
    "implementationTypes": [
      "SCALING - SUMMER 2025"
    ],
    "multipleRounds": false
  },
  {
    "name": "Mejo Elementary School",
    "sdo": "Zamboanga Sibugay",
    "lat": 7.717228899059322,
    "lng": 122.94940290015451,
    "implementationTypes": [
      "SCALING - SUMMER 2025",
      "SCALING - ROUND 3",
      "SCALING - ROUND 4"
    ],
    "multipleRounds": true
  },
  {
    "name": "Natan Elementary School",
    "sdo": "Zamboanga Sibugay",
    "lat": 7.79034308610252,
    "lng": 122.95077286164782,
    "implementationTypes": [
      "SCALING - SUMMER 2025"
    ],
    "multipleRounds": false
  },
  {
    "name": "Lindang Elementary School",
    "sdo": "Zamboanga Sibugay",
    "lat": 7.7307361,
    "lng": 122.968414,
    "implementationTypes": [
      "SCALING - SUMMER 2025",
      "SCALING - ROUND 3"
    ],
    "multipleRounds": true
  },
  {
    "name": "Tinongtongan Elementary School",
    "sdo": "Zamboanga Sibugay",
    "lat": 7.7180983,
    "lng": 122.982045,
    "implementationTypes": [
      "SCALING - SUMMER 2025",
      "SCALING - ROUND 3",
      "SCALING - ROUND 4"
    ],
    "multipleRounds": true
  },
  {
    "name": "Luop Elementary School",
    "sdo": "Zamboanga Sibugay",
    "lat": 7.732995,
    "lng": 122.9479752,
    "implementationTypes": [
      "SCALING - SUMMER 2025",
      "SCALING - ROUND 3",
      "SCALING - ROUND 4"
    ],
    "multipleRounds": true
  },
  {
    "name": "Sampoli-A Elementary School",
    "sdo": "Zamboanga Sibugay",
    "lat": 7.7881185,
    "lng": 122.9645785,
    "implementationTypes": [
      "SCALING - SUMMER 2025",
      "SCALING - ROUND 3",
      "SCALING - ROUND 4"
    ],
    "multipleRounds": true
  },
  {
    "name": "Pnoc Village Primary School",
    "sdo": "Zamboanga Sibugay",
    "lat": 7.6799586,
    "lng": 122.9928379,
    "implementationTypes": [
      "SCALING - SUMMER 2025",
      "SCALING - ROUND 3"
    ],
    "multipleRounds": true
  },
  {
    "name": "Sacaon Elementary School",
    "sdo": "Zamboanga Sibugay",
    "lat": 7.837638207653653,
    "lng": 122.92897912852742,
    "implementationTypes": [
      "SCALING - SUMMER 2025",
      "SCALING - ROUND 4"
    ],
    "multipleRounds": true
  },
  {
    "name": "Baluyan Elementary School",
    "sdo": "Zamboanga Sibugay",
    "lat": 7.582187649238061,
    "lng": 122.94169802349542,
    "implementationTypes": [
      "SCALING - ROUND 1",
      "SCALING - ROUND 2",
      "SCALING - SUMMER 2025",
      "SCALING - ROUND 3"
    ],
    "multipleRounds": true
  },
  {
    "name": "Imelda Central Elementary School",
    "sdo": "Zamboanga Sibugay",
    "lat": 7.644040193359535,
    "lng": 122.93113358021115,
    "implementationTypes": [
      "SCALING - ROUND 2",
      "SCALING - SUMMER 2025",
      "SCALING - ROUND 3",
      "SCALING - ROUND 4"
    ],
    "multipleRounds": true
  },
  {
    "name": "Balugo Elementary School",
    "sdo": "Zamboanga Sibugay",
    "lat": 7.648250775851364,
    "lng": 122.94335884285849,
    "implementationTypes": [
      "SCALING - SUMMER 2025",
      "SCALING - ROUND 3",
      "SCALING - ROUND 4"
    ],
    "multipleRounds": true
  },
  {
    "name": "Lalat Elementary School",
    "sdo": "Zamboanga Sibugay",
    "lat": 7.677705211151354,
    "lng": 122.9098365907146,
    "implementationTypes": [
      "SCALING - SUMMER 2025"
    ],
    "multipleRounds": false
  },
  {
    "name": "Baluran Elementary School",
    "sdo": "Zamboanga Sibugay",
    "lat": 8.2485258,
    "lng": 123.375637,
    "implementationTypes": [
      "SCALING - SUMMER 2025",
      "SCALING - ROUND 3"
    ],
    "multipleRounds": true
  },
  {
    "name": "Pulawan Elementary School",
    "sdo": "Zamboanga Sibugay",
    "lat": 7.6528658,
    "lng": 122.9476561,
    "implementationTypes": [
      "SCALING - SUMMER 2025",
      "SCALING - ROUND 3",
      "SCALING - ROUND 4"
    ],
    "multipleRounds": true
  },
  {
    "name": "Mali Little Baguio Elementary School",
    "sdo": "Zamboanga Sibugay",
    "lat": 7.6347287,
    "lng": 122.9434916,
    "implementationTypes": [
      "SCALING - SUMMER 2025",
      "SCALING - ROUND 4"
    ],
    "multipleRounds": true
  },
  {
    "name": "Doña Josefa Elementary School",
    "sdo": "Zamboanga Sibugay",
    "lat": 7.74866744664229,
    "lng": 122.49254592254158,
    "implementationTypes": [
      "SCALING - ROUND 1",
      "SCALING - ROUND 2"
    ],
    "multipleRounds": true
  },
  {
    "name": "Ipil Central Elementary School",
    "sdo": "Zamboanga Sibugay",
    "lat": 7.780341716338137,
    "lng": 122.58757842560074,
    "implementationTypes": [
      "SCALING - ROUND 2",
      "SCALING - SUMMER 2025"
    ],
    "multipleRounds": true
  },
  {
    "name": "Tiayon Elementary School",
    "sdo": "Zamboanga Sibugay",
    "lat": 7.767045753710541,
    "lng": 122.5550458824399,
    "implementationTypes": [
      "Pilot - DepEd Arm",
      "SCALING - ROUND 3",
      "SCALING - ROUND 4"
    ],
    "multipleRounds": true
  },
  {
    "name": "Bangkerohan Elementary School",
    "sdo": "Zamboanga Sibugay",
    "lat": 7.773257515731653,
    "lng": 122.59090696470052,
    "implementationTypes": [
      "SCALING - SUMMER 2025"
    ],
    "multipleRounds": false
  },
  {
    "name": "Caparan Elementary School",
    "sdo": "Zamboanga Sibugay",
    "lat": 7.744293441430652,
    "lng": 122.53968448595181,
    "implementationTypes": [
      "SCALING - SUMMER 2025"
    ],
    "multipleRounds": false
  },
  {
    "name": "Ipil Heights Elementary School",
    "sdo": "Zamboanga Sibugay",
    "lat": 7.786398118983157,
    "lng": 122.5802484889835,
    "implementationTypes": [
      "SCALING - SUMMER 2025"
    ],
    "multipleRounds": false
  },
  {
    "name": "Ipil Special Education Center",
    "sdo": "Zamboanga Sibugay",
    "lat": 7.779391820083299,
    "lng": 122.5876706966156,
    "implementationTypes": [
      "SCALING - SUMMER 2025"
    ],
    "multipleRounds": false
  },
  {
    "name": "Luis Ruiz Sr. Elementary School",
    "sdo": "Zamboanga Sibugay",
    "lat": 7.773159261755844,
    "lng": 122.57179673557377,
    "implementationTypes": [
      "SCALING - SUMMER 2025",
      "SCALING - ROUND 3",
      "SCALING - ROUND 4"
    ],
    "multipleRounds": true
  },
  {
    "name": "Pangi Elementary School",
    "sdo": "Zamboanga Sibugay",
    "lat": 7.7990937607802575,
    "lng": 122.61386428354332,
    "implementationTypes": [
      "SCALING - SUMMER 2025",
      "SCALING - ROUND 3",
      "SCALING - ROUND 4"
    ],
    "multipleRounds": true
  },